stop_id,stop_name,stop_lat,stop_lon,zone_id,location_type,parent_station,level_id,platform_code
"at:47:1222:0:4","St. Anton a.A. Bahnhof","47.12746819","10.26663877","0078","","","Level 0","1"
"at:47:61099:0:1","St. Anton a. A. Kohlereck","47.12235842","10.25381981","0078","","","Level 0",""
"at:47:61099:0:2","St. Anton a. A. Kohlereck","47.12232175","10.25370303","0078","","","Level 0",""
"at:47:62209:0:1","St. Anton a. A. Stadle B197","47.12227285","10.24864552","0078","","","Level 0",""
"at:47:62504:0:1","St. Anton a. A. Brandli","47.12488281","10.26001819","0078","","","Level 0",""
"at:47:64938:0:1","St. Anton a. A. Terminal West","47.12656974","10.26319822","0078","","","Level 0","C"
"at:47:64938:0:4","St. Anton a. A. Terminal West","47.12658196","10.26371925","0078","","","Level 0","F"
"at:47:64939:0:2","St.Anton a.A. Schollberg","47.12155157","10.24969654","0078","","","Level 0",""
"at:47:64940:0:1","St. Anton a. A. Mooserkreuz","47.12389263","10.24795381","0078","","","Level 0","1"
"at:47:64940:0:2","St. Anton a. A. Mooserkreuz","47.12411267","10.24867247","0078","","","Level 0",""
"at:47:64942:0:1","St. Christoph a. A.","47.12790213","10.21339562","0077","","","Level 0",""
"at:47:64942:0:2","St. Christoph a. A.","47.12797547","10.21341359","0077","","","Level 0",""
"at:48:1:0:1","Bregenz Kloster Mehrerau","47.50258458","9.72063376","0010","","","Level 0",""
"at:48:1:0:2","Bregenz Kloster Mehrerau","47.50262706","9.72073257","0010","","","Level 0",""
"at:48:10:0:1","Bregenz Unter der Riedenburg","47.48767791","9.73296763","0010","","","Level 0",""
"at:48:10:0:2","Bregenz Unter der Riedenburg","47.48765363","9.73289576","0010","","","Level 0",""
"at:48:1000:0:1","Dornbirn Fallengraben","47.40612017","9.72978759","0020","","","Level 0",""
"at:48:1000:0:2","Dornbirn Fallengraben","47.40589522","9.72993132","0020","","","Level 0",""
"at:48:1003:0:1","Gisingen Ringstraße","47.25972912","9.59380062","0030","","","Level 0",""
"at:48:1003:0:2","Gisingen Ringstraße","47.25969254","9.59355808","0030","","","Level 0",""
"at:48:1004:0:1","Bartholomäberg Buxwald","47.09684505","9.88664242","0052","","","Level 0",""
"at:48:1004:0:2","Bartholomäberg Buxwald","47.09679001","9.88668734","0052","","","Level 0",""
"at:48:1005:0:1","Gisingen Rüttenenstraße","47.26450868","9.59486962","0030","","","Level 0",""
"at:48:1005:0:2","Gisingen Rüttenenstraße","47.26439286","9.59509420","0030","","","Level 0",""
"at:48:1006:0:1","Gisingen Sägerstraße","47.25760135","9.58786276","0030","","","Level 0",""
"at:48:1006:0:2","Gisingen Sägerstraße","47.25757087","9.58797954","0030","","","Level 0",""
"at:48:1008:0:1","Dornbirn Blumenegg","47.40001573","9.74321740","0020","","","Level 0",""
"at:48:1008:0:2","Dornbirn Blumenegg","47.40005221","9.74327130","0020","","","Level 0",""
"at:48:1011:0:1","Gisingen Schufla","47.26184462","9.60030443","0030","","","Level 0",""
"at:48:1011:0:2","Gisingen Schufla","47.26174098","9.60043917","0030","","","Level 0",""
"at:48:1013:0:1","Gisingen Sebastianplatz","47.25895484","9.59770829","0030","","","Level 0",""
"at:48:1013:0:2","Gisingen Sebastianplatz","47.25894875","9.59752863","0030","","","Level 0",""
"at:48:1014:0:1","Göfis Agasella","47.24387546","9.64435781","0037","","","Level 0",""
"at:48:1014:0:2","Göfis Agasella","47.24392425","9.64433984","0037","","","Level 0",""
"at:48:1015:0:1","Göfis Badida","47.24232642","9.63622805","0037","","","Level 0",""
"at:48:1015:0:2","Göfis Badida","47.24249719","9.63636280","0037","","","Level 0",""
"at:48:1016:0:1","Göfis Kapetsch","47.24171046","9.62417266","0037","","","Level 0",""
"at:48:1016:0:2","Göfis Kapetsch","47.24163727","9.62381334","0037","","","Level 0",""
"at:48:1017:0:1","Göfis Kustergasse","47.24077734","9.62852051","0037","","","Level 0",""
"at:48:1017:0:2","Göfis Kustergasse","47.24072855","9.62864627","0037","","","Level 0",""
"at:48:1017:0:3","Göfis Kustergasse","47.24064927","9.62868221","0037","","","Level 0",""
"at:48:1018:0:1","Bartholomäberg Dörfle","47.08691274","9.92415607","0052","","","Level 0",""
"at:48:1018:0:2","Bartholomäberg Dörfle","47.08692498","9.92429980","0052","","","Level 0",""
"at:48:1019:0:1","Göfis Pfitz","47.24582694","9.64931651","0037","","","Level 0",""
"at:48:1019:0:2","Göfis Pfitz","47.24579035","9.64907396","0037","","","Level 0",""
"at:48:1020:0:1","Göfis Runggels","47.24621112","9.64143828","0037","","","Level 0",""
"at:48:1020:0:2","Göfis Runggels","47.24628430","9.64146523","0037","","","Level 0",""
"at:48:1021:0:1","Göfis Tufers","47.24993700","9.64751089","0037","","","Level 0",""
"at:48:1021:0:2","Göfis Tufers","47.24990651","9.64742106","0037","","","Level 0",""
"at:48:1022:0:1","Gortipohl Zentrum","47.00917014","10.00058473","0054","","","Level 0",""
"at:48:1022:0:2","Gortipohl Zentrum","47.00903538","10.00069253","0054","","","Level 0",""
"at:48:1023:0:1","Gortipohl Mälla","47.00350380","10.00907381","0054","","","Level 0",""
"at:48:1023:0:2","Gortipohl Mälla","47.00338741","10.00909178","0054","","","Level 0",""
"at:48:1024:0:1","Götzis Alte Kirche","47.33123716","9.63863554","0022","","","Level 0",""
"at:48:1024:0:2","Götzis Alte Kirche","47.33134675","9.63833011","0022","","","Level 0",""
"at:48:1026:0:1","Götzis Appenzeller Str./Blattur","47.34153166","9.63975843","0022","","","Level 0",""
"at:48:1026:0:2","Götzis Appenzellerstr./Blattur","47.34122730","9.63984826","0022","","","Level 0",""
"at:48:1027:0:1","Götzis L190/Moos","47.32788843","9.63237428","0022","","","Level 0",""
"at:48:1027:0:2","Götzis L190/Moos","47.32816851","9.63281446","0022","","","Level 0",""
"at:48:1028:0:1","Bartholomäberg Fritzentobel","47.09616624","9.89410742","0052","","","Level 0",""
"at:48:1028:0:2","Bartholomäberg Fritzentobel","47.09615401","9.89399064","0052","","","Level 0",""
"at:48:1029:0:1","Götzis Bahnhof","47.33718520","9.63759349","0022","","Pat:48:1029","Level 0","O"
"at:48:1029:0:5","Götzis Bahnhof","47.33723391","9.63750366","0022","","Pat:48:1029","Level 0","W"
"at:48:1029:0:6","Götzis Bahnhof","47.33685647","9.63726112","0022","","Pat:48:1029","Level 0","S"
"at:48:1029:1","Bstg 1","47.33734348","9.63742281","","","Pat:48:1029","Level 0",""
"at:48:1029:10","Zugang Bahnhofstr. N","47.33755655","9.63780909","","2","Pat:48:1029","Level 0",""
"at:48:1029:3","B+R","47.33680168","9.63702755","","3","Pat:48:1029","Level 0",""
"at:48:1029:4","Zugang Bahnhof","47.33695996","9.63736891","","2","Pat:48:1029","Level 0",""
"at:48:1029:5","Zugang U. d. Bahn","47.33648511","9.63618314","","2","Pat:48:1029","Level 0",""
"at:48:1029:6","B+R","47.33689299","9.63709044","","3","Pat:48:1029","Level 0",""
"at:48:1029:7","Bstg 2+3","47.33630248","9.63625500","","","Pat:48:1029","Level 0",""
"at:48:1029:8","P+R","47.33583980","9.63636280","","3","Pat:48:1029","Level 0",""
"at:48:1029:9","Unterführung","47.33678950","9.63667721","","3","Pat:48:1029","Level -1",""
"at:48:103:0:3","Gisingen Münkafeld","47.27431640","9.59080025","0030","","","Level 0",""
"at:48:103:0:4","Gisingen Münkafeld","47.27418840","9.59062059","0030","","","Level 0",""
"at:48:1030:0:1","Götzis Berg/Oberer Parkplatz","47.33568760","9.66620484","0022","","","Level 0",""
"at:48:1030:0:2","Götzis Berg/Oberer Parkplatz","47.33559020","9.66626772","0022","","","Level 0",""
"at:48:1031:0:1","Götzis Berg/Unterer Parkplatz","47.33545017","9.66226123","0022","","","Level 0",""
"at:48:1031:0:2","Götzis Berg/Unterer Parkplatz","47.33545017","9.66206360","0022","","","Level 0",""
"at:48:1037:0:1","Götzis Dorf","47.33509098","9.64761869","0022","","","Level 0",""
"at:48:1037:0:2","Götzis Dorf","47.33515186","9.64760971","0022","","","Level 0",""
"at:48:1039:0:1","Götzis Gasthaus Kobel","47.34420997","9.65565861","0022","","","Level 0",""
"at:48:1039:0:2","Götzis Gasthaus Kobel","47.34412476","9.65575743","0022","","","Level 0",""
"at:48:1042:0:1","Dornbirn Schützenstraße","47.40063593","9.74109738","0020","","","Level 0",""
"at:48:1042:0:2","Dornbirn Schützenstraße","47.40057513","9.74111535","0020","","","Level 0",""
"at:48:1045:0:1","Götzis H-B-Str/Appenzeller Str","47.33890191","9.64121370","0022","","","Level 0",""
"at:48:1045:0:2","Götzis H-B-Str/Appenzeller Str","47.33890800","9.64112387","0022","","","Level 0",""
"at:48:1046:0:1","Bartholomäberg Fernblick","47.09358545","9.92992325","0052","","","Level 0",""
"at:48:1046:0:2","Bartholomäberg Fernblick","47.09345702","9.92983342","0052","","","Level 0",""
"at:48:1047:0:2","Götzis Mittelschule","47.33492661","9.64178863","0022","","","Level 0",""
"at:48:1048:0:1","Götzis Im Buch","47.33951066","9.65185874","0022","","","Level 0",""
"at:48:1048:0:2","Götzis Im Buch","47.33954110","9.65199349","0022","","","Level 0",""
"at:48:1049:0:1","Götzis Junker-Jonas-Platz","47.33205300","9.64313610","0022","","","Level 0",""
"at:48:1049:0:2","Götzis Junker-Jonas-Platz","47.33223565","9.64337864","0022","","","Level 0",""
"at:48:1050:0:1","Götzis Montfortstraße","47.33344112","9.64743005","0022","","","Level 0",""
"at:48:1050:0:2","Götzis Montfortstraße","47.33348374","9.64739411","0022","","","Level 0",""
"at:48:1053:0:1","Götzis Kolpinghaus","47.33382467","9.63807858","0022","","","Level 0",""
"at:48:1053:0:2","Götzis Kolpinghaus","47.33355071","9.63795282","0022","","","Level 0",""
"at:48:1054:0:1","Götzis Lastenstraße","47.33980895","9.63487160","0022","","","Level 0",""
"at:48:1054:0:2","Götzis Lastenstraße","47.33972372","9.63496143","0022","","","Level 0",""
"at:48:1055:0:1","Götzis Krone","47.33352635","9.64832836","0022","","","Level 0",""
"at:48:1055:0:2","Götzis Krone","47.33353244","9.64836429","0022","","","Level 0",""
"at:48:1056:0:1","Götzis Gasthaus Linde","47.33177903","9.63780011","0022","","","Level 0",""
"at:48:1056:0:2","Götzis Gasthaus Linde","47.33198603","9.63791689","0022","","","Level 0",""
"at:48:1057:0:1","Alberschwende Reute","47.45699545","9.86738254","0092","","","Level 0",""
"at:48:1057:0:2","Alberschwende Reute","47.45626658","9.86788560","0092","","","Level 0",""
"at:48:1058:0:1","Bartholomäberg Höllweg","47.08927367","9.93877166","0050","","","Level 0",""
"at:48:1058:0:2","Bartholomäberg Höllweg","47.08924920","9.93821470","0050","","","Level 0",""
"at:48:1059:0:1","Götzis Marktstraße","47.33336197","9.64452849","0022","","","Level 0",""
"at:48:1059:0:2","Götzis Marktstraße","47.33335589","9.64442967","0022","","","Level 0",""
"at:48:1060:0:1","Götzis Neuburgstraße","47.34344302","9.62392113","0022","","","Level 0",""
"at:48:1060:0:2","Götzis Neuburgstraße","47.34326040","9.62406487","0022","","","Level 0",""
"at:48:1061:0:1","Götzis Örflaweg","47.33383685","9.65611675","0022","","","Level 0",""
"at:48:1061:0:2","Götzis Örflaweg","47.33383685","9.65572150","0022","","","Level 0",""
"at:48:1062:0:1","Götzis Römerweg","47.33692952","9.65025974","0022","","","Level 0",""
"at:48:1062:0:2","Götzis Römerweg","47.33708780","9.65053822","0022","","","Level 0",""
"at:48:1063:0:1","Götzis Rütte","47.33450045","9.65879373","0022","","","Level 0",""
"at:48:1063:0:2","Götzis Rütte","47.33455524","9.65876678","0022","","","Level 0",""
"at:48:1064:0:1","Götzis Schulgasse","47.33463439","9.64611851","0022","","","Level 0",""
"at:48:1064:0:2","Götzis Schulgasse","47.33450045","9.64596579","0022","","","Level 0",""
"at:48:1065:0:1","Götzis Schwimmbad","47.33280186","9.65116704","0022","","","Level 0",""
"at:48:1065:0:2","Götzis Schwimmbad","47.33283839","9.65108619","0022","","","Level 0",""
"at:48:1066:0:1","Götzis St. Arbogast","47.32530671","9.64375594","0022","","","Level 0",""
"at:48:1066:0:2","Götzis St. Arbogast","47.32514840","9.64370204","0022","","","Level 0",""
"at:48:1067:0:1","Bartholomäberg Jetzmunt","47.10368161","9.87200887","0052","","","Level 0",""
"at:48:1067:0:2","Bartholomäberg Jetzmunt","47.10371830","9.87190107","0052","","","Level 0",""
"at:48:1068:0:1","Götzis St. Ulrich-Straße","47.33579718","9.63880622","0022","","","Level 0",""
"at:48:1068:0:2","Götzis St. Ulrich-Straße","47.33574848","9.63886012","0022","","","Level 0",""
"at:48:1069:0:1","Götzis Udelbergstraße","47.33058570","9.63557228","0022","","","Level 0",""
"at:48:1069:0:2","Götzis Udelbergstraße","47.33053699","9.63563517","0022","","","Level 0",""
"at:48:1070:0:1","Götzis Untere Kirlastraße","47.33734957","9.62684066","0022","","","Level 0",""
"at:48:1070:0:2","Götzis Untere Kirlastraße","47.33769657","9.62628370","0022","","","Level 0",""
"at:48:1071:0:1","Götzis Wiedengasse/VWP","47.33092056","9.64045014","0022","","","Level 0",""
"at:48:1071:0:2","Götzis Wiedengasse/VWP","47.33086577","9.64049505","0022","","","Level 0",""
"at:48:1072:0:1","Götzis Zentrum","47.33403776","9.64391763","0022","","","Level 0",""
"at:48:1072:0:2","Götzis Zentrum","47.33394035","9.64401645","0022","","","Level 0",""
"at:48:1073:0:1","Hörbranz Unterhochsteg","47.53665495","9.73703700","0015","","","Level 0",""
"at:48:1073:0:4","Hörbranz Unterhochsteg","47.53641236","9.73767480","0015","","","Level 0",""
"at:48:1074:0:1","Großdorf Heckisau","47.44025312","9.92263792","0090","","","Level 0",""
"at:48:1074:0:2","Großdorf Heckisau","47.44020451","9.92270080","0090","","","Level 0",""
"at:48:1075:0:2","Großdorf Zentrum","47.43421339","9.91575682","0090","","","Level 0",""
"at:48:1075:0:3","Großdorf Zentrum","47.43422555","9.91526275","0090","","","Level 0",""
"at:48:1075:0:4","Großdorf Zentrum","47.43443822","9.91567597","0090","","","Level 0",""
"at:48:1076:0:1","Großdorf Wieshalde","47.43096235","9.91283730","0090","","","Level 0",""
"at:48:1076:0:2","Großdorf Wieshalde","47.43088943","9.91211864","0090","","","Level 0",""
"at:48:1077:0:1","Bartholomäberg Kirche","47.09181797","9.90871403","0052","","","Level 0",""
"at:48:1077:0:2","Bartholomäberg Kirche","47.09186078","9.90876793","0052","","","Level 0",""
"at:48:1077:0:3","Bartholomäberg Kirche","47.09189748","9.90835470","0052","","","Level 0","Bärgerstr. vor Friedhof"
"at:48:1078:0:1","Gurtis","47.19390539","9.64155506","0038","","","Level 0",""
"at:48:1079:0:1","Hard Alma","47.49146567","9.70744649","0013","","","Level 0",""
"at:48:1079:0:2","Hard Alma","47.49099222","9.70676377","0013","","","Level 0",""
"at:48:108:0:1","Gisingen Egetenweg","47.26633138","9.60256818","0030","","","Level 0",""
"at:48:108:0:2","Gisingen Egetenweg","47.26633748","9.60251428","0030","","","Level 0",""
"at:48:1080:0:1","Hard Bäckerei Kainz","47.49482830","9.69337887","0013","","","Level 0",""
"at:48:1080:0:2","Hard Bäckerei Kainz","47.49476153","9.69338786","0013","","","Level 0",""
"at:48:1084:0:1","Hard Gasthaus Neuer Rhein","47.47848659","9.67959872","0013","","","Level 0",""
"at:48:1084:0:2","Hard Gasthaus Neuer Rhein","47.47837730","9.67958075","0013","","","Level 0",""
"at:48:1085:0:1","Hard Gasthaus Sternen","47.48468514","9.68707270","0013","","","Level 0",""
"at:48:1085:0:2","Hard Gasthaus Sternen","47.48480048","9.68724338","0013","","","Level 0",""
"at:48:1086:0:1","Hard Gerbe","47.48067225","9.68241943","0013","","","Level 0",""
"at:48:1086:0:2","Hard Gerbe","47.48069046","9.68254519","0013","","","Level 0",""
"at:48:1087:0:1","Hard Heuweg","47.47835302","9.69604687","0013","","","Level 0",""
"at:48:1087:0:2","Hard Heuweg","47.47834694","9.69595704","0013","","","Level 0",""
"at:48:1088:0:1","Bartholomäberg Lavagrand","47.10599288","9.87301498","0052","","","Level 0",""
"at:48:1088:0:2","Bartholomäberg Lavagrand","47.10594396","9.87292515","0052","","","Level 0",""
"at:48:1089:0:1","Hard Hofsteigstraße","47.49069479","9.70215541","0013","","","Level 0",""
"at:48:1089:0:2","Hard Hofsteigstraße","47.49057339","9.70231711","0013","","","Level 0",""
"at:48:109:0:1","Bludenz Gesundheitscampus","47.16028488","9.81532517","0040","","","Level 0",""
"at:48:109:0:2","Bludenz Gesundheitscampus","47.16028488","9.81554077","0040","","","Level 0",""
"at:48:1090:0:1","Hard Kastenweg","47.47745444","9.68503352","0013","","","Level 0",""
"at:48:1090:0:2","Hard Kastenweg","47.47772765","9.68444064","0013","","","Level 0",""
"at:48:1091:0:1","Hard Kirche","47.49270999","9.68864475","0013","","","Level 0",""
"at:48:1091:0:2","Hard Kirche","47.49303776","9.68878848","0013","","","Level 0",""
"at:48:1092:0:1","Hard Sägewerkstraße","47.49630317","9.69183377","0013","","","Level 0",""
"at:48:1092:0:2","Hard Sägewerkstraße","47.49619392","9.69200445","0013","","","Level 0",""
"at:48:1093:0:1","Hard Schäfferhof","47.48595997","9.71165959","0013","","","Level 0",""
"at:48:1093:0:2","Hard Schäfferhof","47.48597818","9.71148891","0013","","","Level 0",""
"at:48:1094:0:1","Hard Strandbad","47.49513784","9.68908493","0013","","","Level 0",""
"at:48:1094:0:2","Hard Strandbad","47.49515605","9.68918374","0013","","","Level 0",""
"at:48:1095:0:1","Hard Straßenkreuzung","47.48906193","9.70494917","0013","","","Level 0",""
"at:48:1095:0:2","Hard Straßenkreuzung","47.48890410","9.70501206","0013","","","Level 0",""
"at:48:1096:0:1","Hard Wallstraße","47.49195126","9.69808604","0013","","","Level 0",""
"at:48:1096:0:2","Hard Wallstraße","47.49186021","9.69865198","0013","","","Level 0",""
"at:48:1097:0:1","Bartholomäberg Obdörfle","47.08817885","9.92377878","0052","","","Level 0",""
"at:48:1097:0:2","Bartholomäberg Obdörfle","47.08825225","9.92376979","0052","","","Level 0",""
"at:48:1098:0:3","Hard-Fussach Bahnhof","47.48025941","9.68964188","0013","","Pat:48:1098","Level 0",""
"at:48:1098:1","Bstg 1+2","47.47982835","9.68815966","","","Pat:48:1098","Level 0",""
"at:48:1098:2","Zugang Falkenweg","47.47952479","9.68803390","","2","Pat:48:1098","Level 0",""
"at:48:1098:3","Zugang Bahnhofstr","47.48001656","9.68825848","","2","Pat:48:1098","Level 0",""
"at:48:1098:4","B+R","47.47956729","9.68833034","","3","Pat:48:1098","Level 0",""
"at:48:11:0:1","Dornbirn Unter der Bahn","47.40612625","9.72285260","0020","","","Level 0",""
"at:48:11:0:2","Dornbirn Unter der Bahn","47.40619921","9.72289751","0020","","","Level 0",""
"at:48:1101:0:1","Dornbirn Erlosenstraße","47.40231410","9.73082065","0020","","","Level 0",""
"at:48:1101:0:2","Dornbirn Erlosenstraße","47.40233842","9.73091049","0020","","","Level 0",""
"at:48:1102:0:1","Dornbirn Schweizerstraße","47.39625786","9.72768553","0020","","","Level 0",""
"at:48:1102:0:2","Dornbirn Schweizerstraße","47.39632475","9.72764062","0020","","","Level 0",""
"at:48:1106:0:1","Bartholomäberg Obergantschier","47.09809869","9.87913251","0052","","","Level 0",""
"at:48:1106:0:2","Bartholomäberg Obergantschier","47.09814761","9.87879115","0052","","","Level 0",""
"at:48:1107:0:1","Hirschau Tankstelle","47.34739942","9.90590230","0081","","","Level 0",""
"at:48:1107:0:2","Hirschau Tankstelle","47.34732638","9.90587535","0081","","","Level 0",""
"at:48:1108:0:1","Hirschau Oberdorf","47.35101471","9.91991602","0081","","","Level 0",""
"at:48:1108:0:2","Hirschau Oberdorf","47.35100862","9.91973636","0081","","","Level 0",""
"at:48:1109:0:1","Hirschau Unterdorf","47.34995571","9.91360985","0081","","","Level 0",""
"at:48:1109:0:2","Hirschau Unterdorf","47.34986441","9.91361883","0081","","","Level 0",""
"at:48:111:0:1","Schlins Abzw. Jagdberg","47.20069896","9.69573246","0042","","","Level 0",""
"at:48:111:0:2","Schlins Abzw. Jagdberg","47.20052196","9.69650501","0042","","","Level 0",""
"at:48:1110:0:1","Hittisau Nordhalden","47.45687397","9.97804600","0093","","","Level 0",""
"at:48:1110:0:2","Hittisau Nordhalden","47.45692864","9.97832448","0093","","","Level 0",""
"at:48:1111:0:1","Hittisau Heideggen","47.45659457","9.96467907","0093","","","Level 0",""
"at:48:1111:0:2","Hittisau Heideggen","47.45666746","9.96462517","0093","","","Level 0",""
"at:48:1112:0:1","Hittisau Nußbaum","47.45764535","9.94892262","0093","","","Level 0",""
"at:48:1112:0:2","Hittisau Nußbaum","47.45757854","9.94893160","0093","","","Level 0",""
"at:48:1113:0:1","Hittisau Häleisen","47.46240094","9.95492337","0093","","","Level 0",""
"at:48:1113:0:2","Hittisau Häleisen","47.46248597","9.95494133","0093","","","Level 0",""
"at:48:1114:0:1","Bartholomäberg Oberjetzmunt","47.10609682","9.86994274","0052","","","Level 0",""
"at:48:1114:0:2","Bartholomäberg Oberjetzmunt","47.10601122","9.86999664","0052","","","Level 0",""
"at:48:1115:0:1","Hittisau Helmisau","47.45604791","9.98622067","0093","","","Level 0",""
"at:48:1115:0:2","Hittisau Helmisau","47.45616939","9.98750526","0093","","","Level 0",""
"at:48:1116:0:1","Hittisau Hinteregg","47.46843743","9.94199661","0093","","","Level 0",""
"at:48:1116:0:2","Hittisau Hinteregg","47.46849816","9.94177203","0093","","","Level 0",""
"at:48:1117:0:1","Hittisau Basen","47.47452180","9.93410940","0093","","","Level 0",""
"at:48:1117:0:2","Hittisau Basen","47.47459466","9.93403754","0093","","","Level 0",""
"at:48:1118:0:1","Hittisau Gemeindehaus","47.45734773","9.96052885","0093","","","Level 0",""
"at:48:1118:0:2","Hittisau Gemeindehaus","47.45748743","9.96090615","0093","","","Level 0",""
"at:48:112:0:1","Schlins Kapelle","47.20282902","9.69474431","0042","","","Level 0",""
"at:48:112:0:2","Schlins Kapelle","47.20274968","9.69481618","0042","","","Level 0",""
"at:48:1120:0:1","Hittisau Windern","47.45881151","9.95373759","0093","","","Level 0",""
"at:48:1120:0:2","Hittisau Windern","47.45873863","9.95374657","0093","","","Level 0",""
"at:48:1121:0:1","Hochkrumbach Gasthaus Adler","47.27059224","10.13401150","0085","","","Level 0",""
"at:48:1121:0:2","Hochkrumbach Gasthaus Adler","47.27058614","10.13375997","0085","","","Level 0",""
"at:48:1122:0:1","Höchst Bäumlestraße","47.46739901","9.61933074","0014","","","Level 0",""
"at:48:1122:0:2","Höchst Bäumlestraße","47.46736257","9.61945651","0014","","","Level 0",""
"at:48:1124:0:1","Höchst Brugg","47.45329631","9.66054545","0014","","","Level 0",""
"at:48:1124:0:2","Höchst Brugg","47.45243983","9.66114732","0014","","","Level 0",""
"at:48:1124:0:3","Höchst Brugg","47.45317483","9.66126410","0014","","","Level 0",""
"at:48:1126:0:1","Höchst Firma Blum","47.45701367","9.65106822","0014","","","Level 0",""
"at:48:1126:0:2","Höchst Firma Blum","47.45722018","9.65042144","0014","","","Level 0",""
"at:48:1127:0:1","Höchst Hecht","47.46549822","9.62525962","0014","","","Level 0",""
"at:48:1127:0:2","Höchst Hecht","47.46515814","9.62541234","0014","","","Level 0",""
"at:48:1128:0:1","Höchst Schwanen","47.45943103","9.64684614","0014","","","Level 0",""
"at:48:1128:0:2","Höchst Schwanen","47.45903624","9.64594783","0014","","","Level 0",""
"at:48:1128:0:3","Höchst Schwanen","47.45902409","9.64627122","0014","","","Level 0",""
"at:48:1128:0:4","Höchst Schwanen","47.45964360","9.64725937","0014","","","Level 0",""
"at:48:1129:0:1","Höchst Kirchplatz","47.45968612","9.63778214","0014","","","Level 0",""
"at:48:1129:0:2","Höchst Kirchplatz","47.45963146","9.63762943","0014","","","Level 0",""
"at:48:113:0:1","Schlins Postamt","47.20621619","9.69903826","0042","","","Level 0",""
"at:48:113:0:2","Schlins Postamt","47.20625281","9.69912809","0042","","","Level 0",""
"at:48:1130:0:1","Höchst Konsumstraße","47.46183612","9.63070342","0014","","","Level 0",""
"at:48:1130:0:2","Höchst Konsumstraße","47.46181183","9.63081121","0014","","","Level 0",""
"at:48:1131:0:1","Höchst Postamt","47.45940066","9.64171676","0014","","","Level 0",""
"at:48:1131:0:2","Höchst Postamt","47.45942495","9.64262406","0014","","","Level 0",""
"at:48:1133:0:5","Hohenems Bahnhof","47.36451810","9.68108094","0021","","","Level 0",""
"at:48:1134:0:1","Hohenems Brucknerstraße","47.36344721","9.67729005","0021","","","Level 0",""
"at:48:1134:0:2","Hohenems Brucknerstraße","47.36339245","9.67738886","0021","","","Level 0",""
"at:48:1135:0:1","Hohenems H.-Büchele-Straße","47.37351034","9.69487008","0021","","","Level 0",""
"at:48:1135:0:2","Hohenems H.-Büchele-Straße","47.37371718","9.69505872","0021","","","Level 0",""
"at:48:1136:0:1","Bartholomäberg Vallaster Eck","47.09113298","9.91755345","0052","","","Level 0",""
"at:48:1136:0:2","Bartholomäberg Vallaster Eck","47.09105959","9.91757142","0052","","","Level 0",""
"at:48:1139:0:1","Hohenems Schiffle","47.36946463","9.69038748","0021","","","Level 0",""
"at:48:1139:0:2","Hohenems Schiffle","47.36949505","9.69050426","0021","","","Level 0",""
"at:48:114:0:1","Schlins St. Loi","47.19847726","9.70326932","0042","","","Level 0",""
"at:48:114:0:2","Schlins St. Loi","47.19853220","9.70279322","0042","","","Level 0",""
"at:48:1140:0:1","Hohenems Millöckerstraße","47.36867370","9.67244813","0021","","","Level 0",""
"at:48:1140:0:2","Hohenems Millöckerstraße","47.36897182","9.67287932","0021","","","Level 0",""
"at:48:1141:0:1","Bartholomäberg Vergiel","47.09662490","9.89073874","0052","","","Level 0",""
"at:48:1141:0:2","Bartholomäberg Vergiel","47.09666159","9.89081959","0052","","","Level 0",""
"at:48:1142:0:1","Hohenems Nibelungenstraße","47.36610615","9.67585274","0021","","","Level 0",""
"at:48:1142:0:2","Hohenems Nibelungenstraße","47.36619742","9.67579884","0021","","","Level 0",""
"at:48:1143:0:1","Hohenems Rossa","47.36197469","9.67222355","0021","","","Level 0",""
"at:48:1143:0:2","Hohenems Rossa","47.36192601","9.67221456","0021","","","Level 0",""
"at:48:1143:0:3","Hohenems Rossa","47.36177997","9.67200795","0021","","","Level 0",""
"at:48:1143:0:4","Hohenems Rossa","47.36173130","9.67208880","0021","","","Level 0",""
"at:48:1144:0:1","Hohenems Schlossplatz","47.36256492","9.68871662","0021","","","Level 0",""
"at:48:1144:0:2","Hohenems Schlossplatz","47.36249190","9.68873458","0021","","","Level 0",""
"at:48:1145:0:1","Alberschwende Gschwend","47.45163800","9.82071506","0092","","","Level 0",""
"at:48:1145:0:2","Alberschwende Gschwend","47.45170482","9.82067913","0092","","","Level 0",""
"at:48:1146:0:1","Bartholomäberg Waldheimatle","47.08497989","9.91060947","0052","","","Level 0",""
"at:48:1146:0:2","Bartholomäberg Waldheimatle","47.08496765","9.91068134","0052","","","Level 0",""
"at:48:1147:0:1","Hohenems Unterklien","47.38424669","9.71077026","0021","","","Level 0",""
"at:48:1147:0:2","Hohenems Unterklien","47.38431359","9.71105772","0021","","","Level 0",""
"at:48:1149:0:1","Hohenweiler Bruck","47.58530758","9.77956324","0016","","","Level 0",""
"at:48:1149:0:2","Hohenweiler Bruck","47.58538634","9.77951833","0016","","","Level 0",""
"at:48:115:0:1","Schnepfau Gemeindeamt","47.35197022","9.94510478","0081","","","Level 0",""
"at:48:115:0:2","Schnepfau Gemeindeamt","47.35192153","9.94501495","0081","","","Level 0",""
"at:48:1150:0:1","Hohenweiler Fesslers","47.57442437","9.77245757","0016","","","Level 0",""
"at:48:1150:0:2","Hohenweiler Fesslers","47.57467890","9.77251147","0016","","","Level 0",""
"at:48:1151:0:1","Hohenweiler Gwiggen","47.57218200","9.77062500","0016","","","Level 0",""
"at:48:1151:0:2","Hohenweiler Gwiggen","47.57243049","9.77075975","0016","","","Level 0",""
"at:48:1152:0:1","Hohenweiler Hub","47.58046010","9.78370447","0016","","","Level 0",""
"at:48:1152:0:2","Hohenweiler Hub","47.58100547","9.78504296","0016","","","Level 0",""
"at:48:1153:0:1","Hohenweiler Leutenhofen","47.58028437","9.77682338","0016","","","Level 0",""
"at:48:1153:0:2","Hohenweiler Leutenhofen","47.58030255","9.77675151","0016","","","Level 0",""
"at:48:1154:0:1","Hohenweiler Gemeindeamt","47.58879748","9.78146767","0016","","","Level 0",""
"at:48:1154:0:2","Hohenweiler Gemeindeamt","47.58874901","9.78153953","0016","","","Level 0",""
"at:48:1155:0:1","Bartholomäberg Würfel","47.08891893","9.91975432","0052","","","Level 0",""
"at:48:1155:0:2","Bartholomäberg Würfel","47.08903514","9.91945788","0052","","","Level 0",""
"at:48:1156:0:1","Hörbranz Berg","47.56557555","9.76416612","0015","","","Level 0",""
"at:48:1156:0:2","Hörbranz Berg","47.56510883","9.76357323","0015","","","Level 0",""
"at:48:1157:0:1","Hörbranz Berger Kreuz","47.56119908","9.76191135","0015","","","Level 0",""
"at:48:1157:0:2","Hörbranz Berger Kreuz","47.56066563","9.76168677","0015","","","Level 0",""
"at:48:1158:0:1","Hörbranz Brantmann","47.54607257","9.75536263","0015","","","Level 0",""
"at:48:1158:0:2","Hörbranz Brantmann","47.54600587","9.75524585","0015","","","Level 0",""
"at:48:1159:0:1","Hörbranz Fronhofen","47.54410793","9.75348515","0015","","","Level 0",""
"at:48:1159:0:2","Hörbranz Fronhofen","47.54418069","9.75348515","0015","","","Level 0",""
"at:48:116:0:1","Schnifis Fallersee","47.21529029","9.73600393","0141","","","Level 0",""
"at:48:116:0:2","Schnifis Fallersee","47.21523538","9.73612071","0141","","","Level 0",""
"at:48:1160:0:1","Hörbranz Gemeindeamt","47.55551275","9.75134716","0015","","","Level 0",""
"at:48:1160:0:2","Hörbranz Gemeindeamt","47.55502169","9.75039494","0015","","","Level 0",""
"at:48:1161:0:1","Hörbranz Leiblach","47.54267685","9.74087280","0015","","","Level 0",""
"at:48:1161:0:2","Hörbranz Leiblach","47.54263440","9.74080992","0015","","","Level 0",""
"at:48:1162:0:1","Hörbranz Leiblach Siedlung","47.54036035","9.74248079","0015","","","Level 0",""
"at:48:1162:0:2","Hörbranz Leiblach Siedlung","47.54064537","9.74225621","0015","","","Level 0",""
"at:48:1163:0:1","Hörbranz Oberdorf","47.55733754","9.75838995","0015","","","Level 0",""
"at:48:1163:0:2","Hörbranz Oberdorf","47.55737391","9.75828215","0015","","","Level 0",""
"at:48:1164:0:1","Hörbranz Sannwald","47.55097173","9.74213943","0015","","","Level 0",""
"at:48:1164:0:2","Hörbranz Sannwald","47.55102024","9.74206756","0015","","","Level 0",""
"at:48:1165:0:1","Hörbranz Unterdorf","47.55342721","9.74527455","0015","","","Level 0",""
"at:48:1165:0:2","Hörbranz Unterdorf","47.55333020","9.74296588","0015","","","Level 0",""
"at:48:1166:0:1","Batschuns Bildungshaus","47.27843644","9.66667196","0032","","","Level 0",""
"at:48:1166:0:2","Batschuns Bildungshaus","47.27925919","9.66604314","0032","","","Level 0",""
"at:48:1167:0:1","Hörbranz Weidach","47.54684871","9.74141179","0015","","","Level 0",""
"at:48:1167:0:2","Hörbranz Weidach","47.54686690","9.74134891","0015","","","Level 0",""
"at:48:1168:0:1","Hörbranz Ziegelbach","47.54775216","9.75225446","0015","","","Level 0",""
"at:48:1168:0:2","Hörbranz Ziegelbach","47.54753994","9.75256887","0015","","","Level 0",""
"at:48:1169:0:1","Hörbranz Ziegelbach Kreuz","47.55160229","9.75122139","0015","","","Level 0",""
"at:48:1169:0:2","Hörbranz Ziegelbach Kreuz","47.55137796","9.75108665","0015","","","Level 0",""
"at:48:117:0:1","Schnifis Gemeindeamt","47.21413094","9.72856588","0141","","","Level 0",""
"at:48:117:0:2","Schnifis Gemeindeamt","47.21408213","9.72856588","0141","","","Level 0",""
"at:48:1170:0:1","Langen Hub","47.52947993","9.86349284","0096","","","Level 0",""
"at:48:1170:0:2","Langen Hub","47.52962550","9.86344792","0096","","","Level 0",""
"at:48:1171:0:1","Innerberg Schulhaus","47.09982927","9.94300272","0052","","","Level 0",""
"at:48:1171:0:2","Innerberg Schulhaus","47.09979258","9.94310154","0052","","","Level 0",""
"at:48:1172:0:1","Innerberg Gasthaus Mühle","47.10218963","9.94842855","0052","","","Level 0",""
"at:48:1173:0:1","Innerlaterns Kirche","47.25774158","9.74211248","0035","","","Level 0",""
"at:48:1173:0:2","Innerlaterns Kirche","47.25765012","9.74248977","0035","","","Level 0",""
"at:48:1174:0:1","Innerlaterns Schmitten","47.26023514","9.73596800","0035","","","Level 0",""
"at:48:1174:0:2","Innerlaterns Schmitten","47.26016808","9.73593207","0035","","","Level 0",""
"at:48:1176:0:1","Kennelbach Herzenmoos","47.48626957","9.76963686","0010","","","Level 0",""
"at:48:1176:0:2","Kennelbach Herzenmoos","47.48633634","9.76958296","0010","","","Level 0",""
"at:48:1177:0:1","Batschuns Gelber Schrofen","47.26944020","9.67884413","0032","","","Level 0",""
"at:48:1177:0:2","Batschuns Gelber Schrofen","47.26929390","9.67896091","0032","","","Level 0",""
"at:48:1178:0:1","Kennelbach Kustersberg","47.48632420","9.75146394","0010","","","Level 0",""
"at:48:1178:0:2","Kennelbach Kustersberg","47.48659737","9.75082613","0010","","","Level 0",""
"at:48:1179:0:1","Kennelbach Postamt","47.48162541","9.76069862","0010","","","Level 0",""
"at:48:1179:0:2","Kennelbach Postamt","47.48143721","9.76068065","0010","","","Level 0",""
"at:48:118:0:1","Schnifis Gasthaus Krone","47.21430790","9.72567331","0141","","","Level 0",""
"at:48:118:0:2","Schnifis Gasthaus Krone","47.21432010","9.72526907","0141","","","Level 0",""
"at:48:118:0:3","Schnifis Gasthaus Krone","47.21435061","9.72548466","0141","","","Level 0",""
"at:48:1180:0:1","Kennelbach Rain","47.48512223","9.76007878","0010","","","Level 0",""
"at:48:1180:0:2","Kennelbach Rain","47.48514044","9.76126456","0010","","","Level 0",""
"at:48:1181:0:1","Kennelbach Siedlung","47.48392629","9.75306294","0010","","","Level 0",""
"at:48:1181:0:2","Kennelbach Siedlung","47.48374417","9.75351210","0010","","","Level 0",""
"at:48:1183:0:1","Klaus Gasthaus Adler","47.31204300","9.64734920","0032","","","Level 0",""
"at:48:1183:0:2","Klaus Gasthaus Adler","47.31243280","9.64744801","0032","","","Level 0",""
"at:48:1184:0:2","Klaus Bahnhof","47.30963715","9.62432538","0032","","","Level 0",""
"at:48:1184:0:3","Klaus Bahnhof","47.30844941","9.62716405","0032","","","Level 0",""
"at:48:1184:0:7","Klaus Bahnhof","47.30941788","9.62331028","0032","","","Level 0","Riedstraße"
"at:48:1185:0:2","Klaus Erlenstraße","47.31110504","9.63567110","0032","","","Level 0",""
"at:48:1185:0:3","Klaus Erlenstraße","47.31114158","9.63559923","0032","","","Level 0",""
"at:48:1186:0:1","Klaus Gemeindeamt","47.30885142","9.64654970","0032","","","Level 0",""
"at:48:1186:0:2","Klaus Gemeindeamt","47.30887578","9.64664851","0032","","","Level 0",""
"at:48:1187:0:1","Klaus Mittelschule","47.30508096","9.64455544","0032","","","Level 0",""
"at:48:1187:0:2","Klaus Mittelschule","47.30480684","9.64501358","0032","","","Level 0",""
"at:48:1188:0:1","Batschuns Schlössle","47.27679090","9.66306073","0032","","","Level 0",""
"at:48:1188:0:2","Batschuns Schlössle","47.27689451","9.66309666","0032","","","Level 0",""
"at:48:1189:0:1","Klaus Ortsmitte","47.30844332","9.64879548","0032","","","Level 0",""
"at:48:1189:0:2","Klaus Ortsmitte","47.30858341","9.64887633","0032","","","Level 0",""
"at:48:119:0:1","Schnifis Tobel","47.21583335","9.71988816","0141","","","Level 0",""
"at:48:119:0:2","Schnifis Tobel","47.21579674","9.71982527","0141","","","Level 0",""
"at:48:1190:0:1","Klaus Postamt","47.30498959","9.64853497","0032","","","Level 0",""
"at:48:1190:0:2","Klaus Postamt","47.30503832","9.64860684","0032","","","Level 0",""
"at:48:1191:0:1","Klaus Sattelberg","47.31057514","9.64065675","0032","","","Level 0",""
"at:48:1191:0:2","Klaus Sattelberg","47.31062996","9.64065675","0032","","","Level 0",""
"at:48:1192:0:1","Klaus Treietstraße","47.30690835","9.63290429","0032","","","Level 0",""
"at:48:1192:0:2","Klaus Treietstraße","47.30713982","9.63215869","0032","","","Level 0",""
"at:48:1194:0:1","Klösterle Campingplatz","47.13184410","10.09745007","0073","","","Level 0",""
"at:48:1194:0:2","Klösterle Campingplatz","47.13178910","10.09742312","0073","","","Level 0",""
"at:48:1195:0:1","Klösterle Dorfzentrum","47.13117185","10.09197035","0073","","","Level 0",""
"at:48:1195:0:2","Klösterle Dorfzentrum","47.13112907","10.09208713","0073","","","Level 0",""
"at:48:1196:0:1","Klösterle Sand","47.13150798","10.08323872","0073","","","Level 0",""
"at:48:1196:0:2","Klösterle Sand","47.13145297","10.08318482","0073","","","Level 0",""
"at:48:1197:0:1","Danöfen Stockinger","47.13080516","10.06044846","0073","","","Level 0",""
"at:48:1197:0:2","Danöfen Stockinger","47.13089072","10.06018795","0073","","","Level 0",""
"at:48:1198:0:1","Klösterle Wilden","47.13082961","10.07461490","0073","","","Level 0",""
"at:48:1198:0:2","Klösterle Wilden","47.13076238","10.07510897","0073","","","Level 0",""
"at:48:1199:0:1","Batschuns Gasthaus Waldrast","47.27380442","9.67089404","0032","","","Level 0",""
"at:48:1199:0:2","Batschuns Gasthaus Waldrast","47.27382880","9.67083116","0032","","","Level 0",""
"at:48:120:0:1","Bludenz Am Tobel","47.15953969","9.80907290","0040","","","Level 0",""
"at:48:120:0:2","Bludenz Am Tobel","47.15975958","9.80827340","0040","","","Level 0",""
"at:48:1200:0:1","Koblach L190/Dürne","47.31144612","9.61919600","0022","","","Level 0",""
"at:48:1200:0:2","Koblach L190/Dürne","47.31133039","9.61970804","0022","","","Level 0",""
"at:48:1201:0:1","Koblach Birken","47.32901484","9.61948346","0022","","","Level 0",""
"at:48:1201:0:2","Koblach Birken","47.32906964","9.62003143","0022","","","Level 0",""
"at:48:1202:0:1","Koblach Dorfplatz","47.33274707","9.60560449","0022","","","Level 0",""
"at:48:1202:0:2","Koblach Dorfplatz","47.33267401","9.60564940","0022","","","Level 0",""
"at:48:1203:0:1","Koblach Dürne","47.31266424","9.61028471","0022","","","Level 0",""
"at:48:1203:0:2","Koblach Dürne","47.31271296","9.61029369","0022","","","Level 0",""
"at:48:1204:0:1","Koblach Bauhof","47.32299890","9.59978340","0022","","","Level 0",""
"at:48:1204:0:2","Koblach Bauhof","47.32315722","9.60000798","0022","","","Level 0",""
"at:48:1205:0:1","Koblach Gasthaus Harmonie","47.33048828","9.60128359","0022","","","Level 0",""
"at:48:1205:0:2","Koblach Gasthaus Harmonie","47.33042131","9.60134647","0022","","","Level 0",""
"at:48:1206:0:1","Koblach Mittelschule","47.32848513","9.60079850","0022","","","Level 0",""
"at:48:1206:0:2","Koblach Mittelschule","47.32844859","9.60067274","0022","","","Level 0",""
"at:48:1207:0:1","Koblach Herrschaftswiesen","47.32413760","9.62792762","0022","","","Level 0",""
"at:48:1207:0:2","Koblach Herrschaftswiesen","47.32411324","9.62802644","0022","","","Level 0",""
"at:48:1208:0:1","Koblach Kohlplatz","47.33050655","9.60970080","0022","","","Level 0",""
"at:48:1208:0:2","Koblach Kohlplatz","47.33048828","9.60964690","0022","","","Level 0",""
"at:48:1209:0:1","Koblach Neuburg","47.34349171","9.61575545","0022","","","Level 0",""
"at:48:1209:0:2","Koblach Neuburg","47.34383258","9.61578240","0022","","","Level 0",""
"at:48:121:0:1","Schönenbach","47.37469053","10.03098372","0088","","","Level 0",""
"at:48:1210:0:1","Batschuns Wengen","47.26748959","9.69080969","0032","","","Level 0",""
"at:48:1210:0:2","Batschuns Wengen","47.26741035","9.69120495","0032","","","Level 0",""
"at:48:1211:0:1","Koblach Gasthaus Sternen","47.31759736","9.59957679","0022","","","Level 0",""
"at:48:1211:0:2","Koblach Gasthaus Sternen","47.31756691","9.59974747","0022","","","Level 0",""
"at:48:1212:0:1","Koblach Straßenhäuser","47.31555108","9.62001346","0022","","","Level 0",""
"at:48:1212:0:2","Koblach Straßenhäuser","47.31594695","9.62029194","0022","","","Level 0",""
"at:48:1215:0:1","Krumbach Gießen","47.50105526","9.92261995","0094","","","Level 0",""
"at:48:1215:0:2","Krumbach Gießen","47.50124947","9.92258402","0094","","","Level 0",""
"at:48:1216:0:1","Krumbach Dorf","47.48371382","9.93438788","0094","","","Level 0",""
"at:48:1216:0:2","Krumbach Dorf","47.48367739","9.93428008","0094","","","Level 0",""
"at:48:1217:0:1","Krumbach Glatzegg","47.47947622","9.90659401","0094","","","Level 0",""
"at:48:1217:0:2","Krumbach Glatzegg","47.47937908","9.90635146","0094","","","Level 0",""
"at:48:1218:0:1","Krumbach Unterkrumbach","47.48795107","9.93287871","0094","","","Level 0",""
"at:48:1218:0:2","Krumbach Unterkrumbach","47.48822424","9.93295058","0094","","","Level 0",""
"at:48:1219:0:1","Krumbach Moos","47.47976764","9.91865838","0094","","","Level 0",""
"at:48:1219:0:2","Krumbach Moos","47.47976764","9.91891889","0094","","","Level 0",""
"at:48:122:0:1","Schoppernau Oberdorf","47.31021578","10.02132683","0083","","","Level 0",""
"at:48:122:0:2","Schoppernau Oberdorf","47.31014269","10.02125497","0083","","","Level 0",""
"at:48:1220:0:1","Bersbuch Kapelle","47.40142638","9.86705915","0090","","","Level 0",""
"at:48:1220:0:2","Bersbuch Kapelle","47.40144462","9.86714000","0090","","","Level 0",""
"at:48:1221:0:1","Krumbach Oberkrumbach","47.48151614","9.92634796","0094","","","Level 0",""
"at:48:1221:0:2","Krumbach Oberkrumbach","47.48147971","9.92603355","0094","","","Level 0",""
"at:48:1222:0:1","Krumbach Bränden","47.47768515","9.93418127","0094","","","Level 0",""
"at:48:1222:0:2","Krumbach Bränden","47.47770337","9.93428907","0094","","","Level 0",""
"at:48:1223:0:1","Krumbach Zwing","47.49513177","9.92810866","0094","","","Level 0",""
"at:48:1223:0:2","Krumbach Zwing","47.49510143","9.92829730","0094","","","Level 0",""
"at:48:1224:0:1","Langen Ach","47.51543030","9.86158841","0096","","","Level 0",""
"at:48:1224:0:2","Langen Ach","47.51536356","9.86215435","0096","","","Level 0",""
"at:48:1226:0:2","Langen a. A. Bahnhof","47.13181966","10.12095000","0073","","Pat:48:1226","Level 0",""
"at:48:1226:0:3","Langen a. A. Bahnhof","47.13184410","10.12099491","0073","","Pat:48:1226","Level 0",""
"at:48:1226:1","Bstg 1+2","47.13172188","10.12053677","","","Pat:48:1226","Level 0",""
"at:48:1226:3","Zugang","47.13185021","10.12112966","","2","Pat:48:1226","Level -1",""
"at:48:1226:4","P+R","47.13194800","10.12047389","","3","Pat:48:1226","Level 0",""
"at:48:1227:0:1","Langen Fischanger","47.51589747","9.84413414","0096","","","Level 0",""
"at:48:1227:0:2","Langen Fischanger","47.51587320","9.84395448","0096","","","Level 0",""
"at:48:1228:0:1","Langen Hälin","47.50115236","9.80950409","0096","","","Level 0",""
"at:48:1228:0:2","Langen Hälin","47.50115236","9.80935138","0096","","","Level 0",""
"at:48:1229:0:1","Langen Gesern","47.49880976","9.80345843","0096","","","Level 0",""
"at:48:1229:0:2","Langen Gesern","47.49910107","9.80423098","0096","","","Level 0",""
"at:48:123:0:1","Schoppernau Hinterhopfreben","47.28177612","10.05849912","0083","","","Level 0",""
"at:48:123:0:2","Schoppernau Hinterhopfreben","47.28172736","10.05836437","0083","","","Level 0",""
"at:48:1230:0:1","Langen Gschwend","47.51271215","9.83831306","0096","","","Level 0",""
"at:48:1230:0:2","Langen Gschwend","47.51273035","9.83808848","0096","","","Level 0",""
"at:48:1231:0:1","Bersbuch Kreisverkehr","47.39903676","9.85387188","0090","","","Level 0",""
"at:48:1231:0:2","Bersbuch Kreisverkehr","47.39894555","9.85359340","0090","","","Level 0",""
"at:48:1231:0:3","Bersbuch Kreisverkehr","47.39899420","9.85286577","0090","","","Level 0",""
"at:48:1231:0:4","Bersbuch Kreisverkehr","47.39894555","9.85282085","0090","","","Level 0",""
"at:48:1232:0:1","Langen Dorf","47.50898660","9.82863820","0096","","","Level 0",""
"at:48:1232:0:2","Langen Dorf","47.50881063","9.82823396","0096","","","Level 0",""
"at:48:1233:0:1","Langen Rietern","47.50425343","9.81819080","0096","","","Level 0",""
"at:48:1233:0:2","Langen Rietern","47.50441121","9.81842436","0096","","","Level 0",""
"at:48:1234:0:1","Langen Vorderhub","47.52309861","9.85403358","0096","","","Level 0",""
"at:48:1234:0:2","Langen Vorderhub","47.52315321","9.85392578","0096","","","Level 0",""
"at:48:1235:0:1","Langen Wirtatobel","47.50157718","9.79401713","0096","","","Level 0",""
"at:48:1235:0:2","Langen Wirtatobel","47.50175317","9.79409798","0096","","","Level 0",""
"at:48:1236:0:1","Langenegg Kirche","47.46085831","9.90724978","0093","","","Level 0",""
"at:48:1236:0:2","Langenegg Kirche","47.46073077","9.90712401","0093","","","Level 0",""
"at:48:1237:0:1","Langenegg Krone","47.47085426","9.89895833","0093","","","Level 0",""
"at:48:1237:0:2","Langenegg Krone","47.47067209","9.89880561","0093","","","Level 0",""
"at:48:1238:0:1","Langenegg Zentrum","47.46837063","9.89683830","0093","","","Level 0",""
"at:48:1238:0:2","Langenegg Zentrum","47.46844350","9.89671254","0093","","","Level 0",""
"at:48:1239:0:1","Langenegg Rotenberg","47.45938244","9.91165152","0093","","","Level 0",""
"at:48:1239:0:2","Langenegg Rotenberg","47.45932778","9.91170542","0093","","","Level 0",""
"at:48:124:0:1","Schoppernau Gemeindeamt","47.31222572","10.01657475","0083","","","Level 0",""
"at:48:124:0:2","Schoppernau Gemeindeamt","47.31228662","10.01655678","0083","","","Level 0",""
"at:48:1242:0:1","Bersbuch Volksschule","47.40219249","9.86190282","0090","","","Level 0",""
"at:48:1242:0:2","Bersbuch Volksschule","47.40202833","9.86063620","0090","","","Level 0",""
"at:48:1243:0:1","Laterns Egga","47.26323458","9.71694168","0035","","","Level 0",""
"at:48:1243:0:2","Laterns Egga","47.26291758","9.71774118","0035","","","Level 0",""
"at:48:1244:0:1","Laterns Krone","47.26165563","9.72229564","0035","","","Level 0",""
"at:48:1244:0:2","Laterns Krone","47.26162515","9.72227768","0035","","","Level 0",""
"at:48:1245:0:1","Laterns Gasthaus Löwen","47.26641673","9.70228118","0035","","","Level 0",""
"at:48:1245:0:2","Laterns Gasthaus Löwen","47.26626433","9.70252372","0035","","","Level 0",""
"at:48:1246:0:1","Laterns Rohnen","47.26965964","9.69601094","0035","","","Level 0",""
"at:48:1246:0:2","Laterns Rohnen","47.26950725","9.69599297","0035","","","Level 0",""
"at:48:1247:0:1","Innerlaterns Seilbahn","47.26079603","9.74225621","0035","","","Level 0",""
"at:48:1247:0:2","Innerlaterns Seilbahn","47.26076554","9.74226519","0035","","","Level 0",""
"at:48:1248:0:1","Latschau Lagardesweg","47.07562656","9.87770419","0050","","","Level 0",""
"at:48:1248:0:2","Latschau Lagardesweg","47.07556539","9.87773114","0050","","","Level 0",""
"at:48:1249:0:1","Latschau Golmerbahn","47.07540632","9.87204480","0050","","","Level 0",""
"at:48:1249:0:2","Latschau Golmerbahn","47.07532679","9.87205378","0050","","","Level 0",""
"at:48:125:0:1","Schoppernau Niederau","47.31577033","10.00980145","0083","","","Level 0",""
"at:48:125:0:2","Schoppernau Niederau","47.31566680","10.00988230","0083","","","Level 0",""
"at:48:1250:0:1","Latschau Kraftwerk","47.07447640","9.87558416","0050","","","Level 0",""
"at:48:1250:0:2","Latschau Kraftwerk","47.07442134","9.87566501","0050","","","Level 0",""
"at:48:1251:0:1","Latschau Stutz","47.07615269","9.88279763","0050","","","Level 0",""
"at:48:1251:0:2","Latschau Stutz","47.07636070","9.88362408","0050","","","Level 0",""
"at:48:1252:0:1","Lauterach Bahnhof","47.47729050","9.72341854","0011","","Pat:48:1252","Level 0",""
"at:48:1252:0:2","Lauterach Bahnhof","47.47741801","9.72331074","0011","","Pat:48:1252","Level 0",""
"at:48:1252:1","Bstg 1+3","47.47706586","9.72434380","","","Pat:48:1252","Level 1",""
"at:48:1252:2","B+R","47.47780658","9.72454143","","3","Pat:48:1252","Level 0",""
"at:48:1252:3","P+R","47.47848051","9.72442465","","3","Pat:48:1252","Level 0",""
"at:48:1252:4","Zugang Vorplatz","47.47743622","9.72452346","","2","Pat:48:1252","Level 0",""
"at:48:1252:6","Zugang K-H-Str","47.47738765","9.72402939","","2","Pat:48:1252","Level 0",""
"at:48:1252:7","Bstg 2","47.47801301","9.72433482","","","Pat:48:1252","Level 1",""
"at:48:1252:8","Unterführung","47.47741193","9.72428092","","3","Pat:48:1252","Level -1",""
"at:48:1253:0:1","Alberschwende Höll","47.45935814","9.83562710","0092","","","Level 0",""
"at:48:1253:0:2","Alberschwende Höll","47.45997765","9.83534862","0092","","","Level 0",""
"at:48:1256:0:1","Lauterach Wolfurterstraße","47.47280951","9.73693818","0011","","","Level 0",""
"at:48:1256:0:2","Lauterach Wolfurterstraße","47.47286415","9.73709988","0011","","","Level 0",""
"at:48:1257:0:1","Lech Bodenalpe","47.22805975","10.15825703","0076","","","Level 0",""
"at:48:1257:0:2","Lech Bodenalpe","47.22802925","10.15817618","0076","","","Level 0",""
"at:48:1258:0:1","Beschling Nenzingerstraße","47.19121947","9.68855492","0042","","","Level 0",""
"at:48:1258:0:2","Beschling Nenzingerstraße","47.19115232","9.68852797","0042","","","Level 0",""
"at:48:1259:0:1","Lech Brunnenhof","47.21565640","10.14808810","0076","","","Level 0",""
"at:48:1259:0:2","Lech Brunnenhof","47.21591267","10.14849234","0076","","","Level 0",""
"at:48:126:0:1","Schoppernau Schalzbach","47.29651572","10.04187130","0083","","","Level 0",""
"at:48:126:0:2","Schoppernau Schalzbach","47.29644870","10.04183537","0083","","","Level 0",""
"at:48:1260:0:1","Lech Feuerwehrhaus","47.21826787","10.15109746","0076","","","Level 0",""
"at:48:1260:0:2","Lech Feuerwehrhaus","47.21840210","10.15131305","0076","","","Level 0",""
"at:48:1261:0:1","Lech Gotthard","47.20644199","10.14011106","0076","","","Level 0",""
"at:48:1261:0:2","Lech Gotthard","47.20645420","10.14021886","0076","","","Level 0",""
"at:48:1262:0:1","Lech Haus Astrid","47.21732214","10.15007338","0076","","","Level 0",""
"at:48:1262:0:2","Lech Haus Astrid","47.21728553","10.15014525","0076","","","Level 0",""
"at:48:1263:0:1","Lech Platte","47.20707058","10.13590695","0076","","","Level 0",""
"at:48:1263:0:2","Lech Platte","47.20712550","10.13582610","0076","","","Level 0",""
"at:48:1264:0:1","Lech Dorfhus","47.21076259","10.14255448","0076","","","Level 0",""
"at:48:1264:0:2","Lech Dorfhus","47.21087243","10.14252753","0076","","","Level 0",""
"at:48:1264:0:5","Lech Dorfhus","47.21072597","10.14241075","0076","","","Level 0",""
"at:48:1265:0:1","Lech Rüfiplatz","47.20803480","10.14176396","0076","","","Level 0",""
"at:48:1265:0:2","Lech Rüfiplatz","47.20750997","10.14119802","0076","","","Level 0",""
"at:48:1265:0:3","Lech Rüfiplatz","47.20746725","10.14125192","0076","","","Level 0",""
"at:48:1266:0:1","Lech Landbrugg","47.21257494","10.14477332","0076","","","Level 0",""
"at:48:1266:0:2","Lech Landbrugg","47.21216610","10.14480925","0076","","","Level 0",""
"at:48:1267:0:1","Lech Schwimmbad","47.20522142","10.12869348","0076","","","Level 0",""
"at:48:1267:0:2","Lech Schwimmbad","47.20528855","10.12897195","0076","","","Level 0",""
"at:48:1269:0:1","Bezau Busbahnhof","47.38188670","9.89770967","0091","","","Level 0",""
"at:48:1269:0:2","Bezau Busbahnhof","47.38190495","9.89793425","0091","","","Level 0",""
"at:48:127:0:1","Schröcken Landsteg","47.26688001","10.06633243","0084","","","Level 0",""
"at:48:127:0:2","Schröcken Landsteg","47.26684344","10.06626056","0084","","","Level 0",""
"at:48:1270:0:1","Lech Wiesele","47.19493700","10.14517756","0076","","","Level 0",""
"at:48:1270:0:2","Lech Wiesele","47.19499804","10.14521349","0076","","","Level 0",""
"at:48:1271:0:1","Levis Finanzamt","47.24444261","9.60619737","0030","","","Level 0",""
"at:48:1271:0:2","Levis Finanzamt","47.24427796","9.60616144","0030","","","Level 0",""
"at:48:1272:0:1","Levis Jugendherberge","47.25016871","9.61252151","0030","","","Level 0",""
"at:48:1272:0:2","Levis Jugendherberge","47.25024189","9.61268321","0030","","","Level 0",""
"at:48:1274:0:2","Levis Vorarlberger Mühle","47.24597329","9.60850604","0030","","","Level 0",""
"at:48:1274:0:3","Levis Vorarlberger Mühle","47.24608916","9.60874859","0030","","","Level 0",""
"at:48:1277:0:1","Lingenau Hohl","47.45686182","9.94189780","0093","","","Level 0",""
"at:48:1277:0:2","Lingenau Hohl","47.45672212","9.94158339","0093","","","Level 0",""
"at:48:1278:0:1","Lingenau Bühl","47.45583532","9.93639112","0093","","","Level 0",""
"at:48:1278:0:2","Lingenau Bühl","47.45568955","9.93639112","0093","","","Level 0",""
"at:48:1279:0:1","Bezau Cafe Natter","47.37773214","9.89045128","0091","","","Level 0",""
"at:48:1279:0:2","Bezau Cafe Natter","47.37730024","9.88957991","0091","","","Level 0",""
"at:48:1279:0:3","Bezau Cafe Natter","47.37739757","9.88946313","0091","","","Level 0",""
"at:48:1279:0:4","Bezau Cafe Natter","47.37765306","9.89040636","0091","","","Level 0",""
"at:48:128:0:1","Schröcken Neßlegg","47.26181414","10.10283996","0084","","","Level 0",""
"at:48:128:0:2","Schröcken Neßlegg","47.26194826","10.10291183","0084","","","Level 0",""
"at:48:1280:0:1","Lingenau Dorfplatz","47.45040486","9.92033823","0093","","","Level 0",""
"at:48:1280:0:2","Lingenau Dorfplatz","47.45035626","9.92042806","0093","","","Level 0",""
"at:48:1280:0:3","Lingenau Dorfplatz","47.45038056","9.92022145","0093","","","Level 0",""
"at:48:1281:0:1","Lingenau Grüner Baum","47.44844878","9.90309956","0093","","","Level 0",""
"at:48:1281:0:2","Lingenau Grüner Baum","47.44851560","9.90304566","0093","","","Level 0",""
"at:48:1282:0:1","Lingenau Gschwend","47.44406860","9.92275470","0093","","","Level 0",""
"at:48:1282:0:2","Lingenau Gschwend","47.44431769","9.92267385","0093","","","Level 0",""
"at:48:1283:0:1","Lingenau Hallenbad","47.44936000","9.91180423","0093","","","Level 0",""
"at:48:1283:0:2","Lingenau Hallenbad","47.44939038","9.91170542","0093","","","Level 0",""
"at:48:1284:0:1","Lingenau Moos","47.45402523","9.93048919","0093","","","Level 0",""
"at:48:1284:0:2","Lingenau Moos","47.45400093","9.93061496","0093","","","Level 0",""
"at:48:1286:0:1","Lingenau St. Anna","47.44773801","9.91101372","0093","","","Level 0",""
"at:48:1286:0:2","Lingenau St. Anna","47.44777446","9.91150779","0093","","","Level 0",""
"at:48:1287:0:1","Lochau Alberloch","47.53425934","9.74614591","0015","","","Level 0",""
"at:48:1287:0:2","Lochau Alberloch","47.53391970","9.74739457","0015","","","Level 0",""
"at:48:1287:0:3","Lochau Alberloch","47.53414411","9.74542726","0015","","","Level 0",""
"at:48:1288:0:1","Hörbranz Alberloch Kloster","47.53780723","9.74434030","0015","","","Level 0",""
"at:48:1288:0:2","Hörbranz Alberloch Kloster","47.53800736","9.74418758","0015","","","Level 0",""
"at:48:129:0:1","Schröcken Dorf","47.25808910","10.09229374","0084","","","Level 0",""
"at:48:129:0:2","Schröcken Dorf","47.25817445","10.09215899","0084","","","Level 0",""
"at:48:1290:0:1","Bezau Kloster","47.38431359","9.90140174","0091","","","Level 0",""
"at:48:1290:0:2","Bezau Kloster","47.38437442","9.90133886","0091","","","Level 0",""
"at:48:1291:0:1","Lochau Galgenbühel","47.53808014","9.76092320","0015","","","Level 0",""
"at:48:1291:0:2","Lochau Galgenbühel","47.53809833","9.76085133","0015","","","Level 0",""
"at:48:1292:0:1","Lochau Freners Säge","47.53782542","9.75234429","0015","","","Level 0",""
"at:48:1292:0:2","Lochau Freners Säge","47.53857742","9.75189513","0015","","","Level 0",""
"at:48:1293:0:1","Lochau Gemeindeamt","47.52922518","9.75164360","0015","","","Level 0",""
"at:48:1293:0:2","Lochau Gemeindeamt","47.52889764","9.75159869","0015","","","Level 0",""
"at:48:1297:0:1","Lochau Schloss Hofen","47.53587867","9.75760842","0015","","","Level 0",""
"at:48:1297:0:2","Lochau Schloss Hofen","47.53609093","9.75743774","0015","","","Level 0",""
"at:48:1298:0:1","Lochau Seepark","47.51314901","9.75367379","0015","","","Level 0",""
"at:48:1298:0:2","Lochau Seepark","47.51195978","9.75308091","0015","","","Level 0",""
"at:48:1299:0:1","Lochau Siedlung","47.53205771","9.75030511","0015","","","Level 0",""
"at:48:1299:0:2","Lochau Siedlung","47.53203952","9.75019731","0015","","","Level 0",""
"at:48:13:0:1","Hohenems Frühlingsstraße","47.37705692","9.70983601","0021","","","Level 0",""
"at:48:13:0:2","Hohenems Frühlingsstraße","47.37715425","9.70981804","0021","","","Level 0",""
"at:48:130:0:5","Bludenz Bahnhof","47.15515384","9.81499280","0040","","","Level 0","A"
"at:48:130:0:7","Bludenz Bahnhof","47.15496447","9.81528026","0040","","","Level 0","B"
"at:48:1300:0:1","Lochau Wellenhof","47.52568278","9.75075427","0015","","","Level 0",""
"at:48:1300:0:2","Lochau Wellenhof","47.52601640","9.75121241","0015","","","Level 0",""
"at:48:1300:0:3","Lochau Wellenhof","47.52581623","9.75057461","0015","","","Level 0",""
"at:48:1301:0:1","Bezau Wilbinger","47.38563951","9.89032552","0091","","","Level 0",""
"at:48:1301:0:2","Bezau Wilbinger","47.38557261","9.89019077","0091","","","Level 0",""
"at:48:1303:0:1","Lorüns Bahnhof","47.13079294","9.85284780","0051","","","Level 0",""
"at:48:1303:0:3","Lorüns Bahnhof","47.13084794","9.85291967","0051","","","Level 0","1"
"at:48:1305:0:1","Ludesch Bahnhof","47.18050493","9.77156823","0041","","Pat:48:1305","Level 0",""
"at:48:1305:1","Bstg 1+2","47.18058430","9.77029263","","","Pat:48:1305","Level 0",""
"at:48:1305:3","P+R","47.18062094","9.77096636","","3","Pat:48:1305","Level 0",""
"at:48:1305:4","B+R","47.18054767","9.77113704","","3","Pat:48:1305","Level 0",""
"at:48:1305:5","Zugang Bahnhofstr","47.18040723","9.77156823","","2","Pat:48:1305","Level 0",""
"at:48:1305:6","Unterführung","47.18016300","9.77189163","","3","Pat:48:1305","Level -1",""
"at:48:1306:0:1","Ludesch Beim Kreuz","47.19074331","9.77773966","0041","","","Level 0",""
"at:48:1306:0:2","Ludesch Beim Kreuz","47.19059680","9.77763186","0041","","","Level 0",""
"at:48:1307:0:1","Ludesch Brärsch","47.19659119","9.77909612","0041","","","Level 0",""
"at:48:1307:0:2","Ludesch Brärsch","47.19676210","9.77845831","0041","","","Level 0",""
"at:48:1308:0:1","Ludesch Gemeindeamt","47.19283714","9.78293192","0041","","","Level 0",""
"at:48:1308:0:2","Ludesch Gemeindeamt","47.19278831","9.78271633","0041","","","Level 0",""
"at:48:1309:0:1","Ludesch Sutterlüty","47.18797786","9.77778458","0041","","","Level 0",""
"at:48:1309:0:2","Ludesch Sutterlüty","47.18777640","9.77773966","0041","","","Level 0",""
"at:48:131:0:1","Schröcken Schmitte","47.26120449","10.09728837","0084","","","Level 0",""
"at:48:131:0:2","Schröcken Schmitte","47.26118011","10.09700990","0084","","","Level 0",""
"at:48:1310:0:1","Ludesch Unterfeld","47.18077358","9.77735339","0041","","","Level 0",""
"at:48:1310:0:2","Ludesch Unterfeld","47.18073694","9.77738033","0041","","","Level 0",""
"at:48:1311:0:1","Brand Lünerseebahn","47.06687737","9.75498533","0049","","","Level 0",""
"at:48:1312:0:1","Andelsbuch Heimgarten","47.40553651","9.88490867","0090","","","Level 0",""
"at:48:1312:0:2","Andelsbuch Heimgarten","47.40542099","9.88409121","0090","","","Level 0",""
"at:48:1313:0:1","Lustenau Bahnhof","47.45075111","9.66669891","0023","","Pat:48:1313","Level 0","A"
"at:48:1313:0:6","Lustenau Bahnhof","47.45076933","9.66662704","0023","","Pat:48:1313","Level 0","B"
"at:48:1313:1","Inselbstg 1+2","47.45086653","9.66739061","","","Pat:48:1313","Level 0",""
"at:48:1313:3","P+R","47.45013757","9.66650128","","3","Pat:48:1313","Level 0",""
"at:48:1313:4","B+R","47.45027121","9.66616890","","3","Pat:48:1313","Level 0",""
"at:48:1313:5","Zugang","47.45092727","9.66679772","","2","Pat:48:1313","Level 0",""
"at:48:1313:6","Prov. Bahnsteig 3","47.45052635","9.66745349","","","Pat:48:1313","Level 0",""
"at:48:1313:7","Zugang Ost","47.45061139","9.66755231","","2","Pat:48:1313","Level 0",""
"at:48:1313:8","Unterführung","47.45084830","9.66718400","","3","Pat:48:1313","Level -1",""
"at:48:1314:0:2","Lustenau Hagstraße","47.44980346","9.66458787","0023","","","Level 0",""
"at:48:1314:0:3","Lustenau Hagstraße","47.44976094","9.66446210","0023","","","Level 0",""
"at:48:1315:0:1","Lustenau Binsenfeld","47.41855184","9.66493821","0023","","","Level 0",""
"at:48:1315:0:2","Lustenau Binsenfeld","47.41809597","9.66646535","0023","","","Level 0",""
"at:48:1316:0:1","Lustenau Feldrast","47.41690459","9.68382978","0023","","","Level 0",""
"at:48:1316:0:2","Lustenau Feldrast","47.41672831","9.68373097","0023","","","Level 0",""
"at:48:1317:0:1","Lustenau Fischerbühel","47.44074526","9.65790440","0023","","","Level 0",""
"at:48:1317:0:2","Lustenau Fischerbühel","47.44079386","9.65781457","0023","","","Level 0",""
"at:48:1318:0:1","Lustenau Gasthaus Austria","47.43156396","9.65818288","0023","","","Level 0",""
"at:48:1318:0:2","Lustenau Gasthaus Austria","47.43149711","9.65777864","0023","","","Level 0",""
"at:48:1319:0:1","Lustenau Gasthaus Bräuhaus","47.43220202","9.65121195","0023","","","Level 0",""
"at:48:1319:0:2","Lustenau Gasthaus Bräuhaus","47.43211087","9.65143653","0023","","","Level 0",""
"at:48:132:0:1","Schröcken Tannbergbrücke","47.26041194","10.08792793","0084","","","Level 0",""
"at:48:132:0:2","Schröcken Tannbergbrücke","47.26039365","10.08782013","0084","","","Level 0",""
"at:48:1320:0:1","Lustenau Gasthaus Engel","47.42036924","9.66023104","0023","","","Level 0",""
"at:48:1320:0:2","Lustenau Gasthaus Engel","47.41973711","9.66018612","0023","","","Level 0",""
"at:48:1320:0:3","Lustenau Gasthaus Engel","47.41913536","9.66165038","0023","","","Level 0",""
"at:48:1320:0:4","Lustenau Gasthaus Engel","47.41910497","9.66147970","0023","","","Level 0",""
"at:48:1321:0:1","Lustenau Gasthaus Linde","47.43620646","9.65305350","0023","","","Level 0",""
"at:48:1321:0:2","Lustenau Gasthaus Linde","47.43608493","9.65285587","0023","","","Level 0",""
"at:48:1323:0:1","Lustenau Lustenauer Hof","47.43785311","9.65627845","0023","","","Level 0",""
"at:48:1323:0:2","Lustenau Lustenauer Hof","47.43796856","9.65619760","0023","","","Level 0",""
"at:48:1324:0:1","Lustenau Schäfle","47.44455463","9.66085088","0023","","","Level 0",""
"at:48:1324:0:2","Lustenau Schäfle","47.44445135","9.66063528","0023","","","Level 0",""
"at:48:1326:0:1","Lustenau Gasthaus Lamm","47.41492903","9.66555805","0023","","","Level 0",""
"at:48:1326:0:2","Lustenau Gasthaus Lamm","47.41443665","9.66584551","0023","","","Level 0",""
"at:48:1327:0:1","Lustenau Kirchplatz","47.42679343","9.65869492","0023","","","Level 0",""
"at:48:1327:0:2","Lustenau Kirchplatz","47.42681166","9.65860509","0023","","","Level 0",""
"at:48:1328:0:1","Lustenau Vorachstraße","47.42504311","9.67384950","0023","","","Level 0",""
"at:48:1328:0:2","Lustenau Vorachstraße","47.42500664","9.67312186","0023","","","Level 0",""
"at:48:1328:0:3","Lustenau Vorachstraße","47.42495802","9.67392136","0023","","","Level 0",""
"at:48:133:0:1","Schröcken Unterboden","47.26208238","10.08123548","0084","","","Level 0",""
"at:48:133:0:2","Schröcken Unterboden","47.26217382","10.08070547","0084","","","Level 0",""
"at:48:1330:0:1","Mäder Gasthaus Adler","47.34872018","9.61515358","0022","","","Level 0",""
"at:48:1330:0:2","Mäder Gasthaus Adler","47.34860454","9.61505476","0022","","","Level 0",""
"at:48:1331:0:1","Bildstein Ankenreuthe","47.45811304","9.76022251","0012","","","Level 0",""
"at:48:1331:0:2","Bildstein Ankenreuthe","47.45810089","9.76028539","0012","","","Level 0",""
"at:48:1332:0:1","Mäder Kutzenau","47.34545778","9.60916181","0022","","","Level 0",""
"at:48:1332:0:2","Mäder Kutzenau","47.34537256","9.60894622","0022","","","Level 0",""
"at:48:1333:0:1","Mäder Schnabelholz","47.35296832","9.63220360","0022","","","Level 0",""
"at:48:1333:0:2","Mäder Schnabelholz","47.35301701","9.63218564","0022","","","Level 0",""
"at:48:1335:0:1","Marul Kirche","47.20094920","9.86146265","0045","","","Level 0",""
"at:48:1335:0:2","Marul Kirche","47.20089427","9.86131891","0045","","","Level 0",""
"at:48:1336:0:1","Raggal Litze","47.22141611","9.86517269","0045","","","Level 0",""
"at:48:1336:0:2","Raggal Litze","47.22141001","9.86527150","0045","","","Level 0",""
"at:48:1337:0:1","Raggal Plazera","47.21624216","9.85449172","0045","","","Level 0",""
"at:48:1337:0:2","Raggal Plazera","47.21624216","9.85463545","0045","","","Level 0",""
"at:48:134:0:7","Schruns Bahnhof","47.07960912","9.91778701","0050","","Pat:48:134","Level 0",""
"at:48:134:1","Bstg 1","47.07960912","9.91763430","","","Pat:48:134","Level 0",""
"at:48:134:3","B+R","47.07943171","9.91820922","","3","Pat:48:134","Level 0",""
"at:48:134:4","Zugang","47.07969476","9.91749955","","2","Pat:48:134","Level 0",""
"at:48:134:5","Bstg 2","47.07971311","9.91708633","","","Pat:48:134","Level 0",""
"at:48:1342:0:1","Bildstein Dorfplatz","47.45808874","9.77258333","0012","","","Level 0",""
"at:48:1342:0:2","Bildstein Dorfplatz","47.45803408","9.77261926","0012","","","Level 0",""
"at:48:1343:0:1","Meiningen Oberdorf","47.29337803","9.58049657","0031","","","Level 0",""
"at:48:1343:0:2","Meiningen Oberdorf","47.29355472","9.58038878","0031","","","Level 0",""
"at:48:1344:0:2","Meiningen Hadeldorfstraße","47.30037817","9.57587923","0031","","","Level 0",""
"at:48:1346:0:1","Mellau Bergbahnen","47.34633426","9.88865465","0080","","","Level 0",""
"at:48:1347:0:1","Mellau Klaus","47.36185908","9.87852165","0080","","","Level 0",""
"at:48:1347:0:2","Mellau Klaus","47.36234587","9.87845877","0080","","","Level 0",""
"at:48:1349:0:1","Mellau Zentrum","47.35142856","9.88169271","0080","","","Level 0",""
"at:48:1349:0:2","Mellau Zentrum","47.35148334","9.88171965","0080","","","Level 0",""
"at:48:135:0:1","Schruns Gamprätz","47.06669380","9.93138751","0050","","","Level 0",""
"at:48:135:0:2","Schruns Gamprätz","47.06637562","9.93146836","0050","","","Level 0",""
"at:48:1350:0:1","Möggers Dorfplatz","47.56159916","9.81650197","0017","","","Level 0",""
"at:48:1350:0:2","Möggers Dorfplatz","47.56147792","9.81629535","0017","","","Level 0",""
"at:48:1351:0:1","Möggers Kapf","47.57586671","9.79675700","0017","","","Level 0",""
"at:48:1351:0:2","Möggers Kapf","47.57590307","9.79681089","0017","","","Level 0",""
"at:48:1352:0:1","Möggers Kurlismühle","47.56849098","9.81422024","0017","","","Level 0",""
"at:48:1352:0:2","Möggers Kurlismühle","47.56796973","9.81437296","0017","","","Level 0",""
"at:48:1352:0:3","Möggers Kurlismühle","47.56940618","9.81479517","0017","","","Level 0",""
"at:48:1353:0:1","Alberschwende Dreßlen","47.45805230","9.84991929","0092","","","Level 0",""
"at:48:1353:0:2","Alberschwende Dreßlen","47.45865360","9.85078168","0092","","","Level 0",""
"at:48:1354:0:1","Bildstein Farnach","47.44858243","9.79466392","0012","","","Level 0",""
"at:48:1354:0:2","Bildstein Farnach","47.44832121","9.79454714","0012","","","Level 0",""
"at:48:1355:0:1","Möggers Rucksteig","47.57329108","9.79965855","0017","","","Level 0",""
"at:48:1355:0:2","Möggers Rucksteig","47.57329714","9.79991907","0017","","","Level 0",""
"at:48:1356:0:1","Möggers Sättels","47.56662415","9.80108688","0017","","","Level 0",""
"at:48:1356:0:2","Möggers Sättels","47.56650293","9.80089823","0017","","","Level 0",""
"at:48:1357:0:1","Möggers Sellengehr","47.57436983","9.81001613","0017","","","Level 0",""
"at:48:1357:0:2","Möggers Sellengehr","47.57442437","9.80984545","0017","","","Level 0",""
"at:48:1358:0:1","Möggers Stadler","47.55987758","9.79005556","0017","","","Level 0",""
"at:48:1358:0:2","Möggers Stadler","47.55988970","9.78997471","0017","","","Level 0",""
"at:48:1359:0:5","Möggers Weienried","47.57268503","9.81607976","0017","","","Level 0",""
"at:48:1359:0:6","Möggers Weienried","47.57292139","9.81567552","0017","","","Level 0",""
"at:48:136:0:1","Schruns Grüt","47.07856304","9.90990879","0050","","","Level 0",""
"at:48:136:0:2","Schruns Grüt","47.07853245","9.91003455","0050","","","Level 0",""
"at:48:1360:0:1","Muntlix Arkahüsle","47.27598639","9.65992561","0032","","","Level 0",""
"at:48:1360:0:2","Muntlix Arkahüsle","47.27607172","9.66008731","0032","","","Level 0",""
"at:48:1361:0:1","Muntlix Arken","47.27835112","9.65892848","0032","","","Level 0",""
"at:48:1361:0:2","Muntlix Arken","47.27957000","9.65916204","0032","","","Level 0",""
"at:48:1362:0:1","Muntlix Gemeindeamt","47.28501199","9.66020409","0032","","","Level 0",""
"at:48:1362:0:2","Muntlix Gemeindeamt","47.28504855","9.66016816","0032","","","Level 0",""
"at:48:1363:0:1","Muntlix Hauptstraße","47.28339103","9.65887458","0032","","","Level 0",""
"at:48:1364:0:1","Muntlix Kreuzstraße","47.28328743","9.65874882","0032","","","Level 0",""
"at:48:1366:0:1","Muntlix Stegstraße","47.28257444","9.65830864","0032","","","Level 0",""
"at:48:1367:0:1","Müselbach Hochbrücke","47.45195995","9.88349832","0092","","","Level 0",""
"at:48:1367:0:2","Müselbach Hochbrücke","47.45200854","9.88334561","0092","","","Level 0",""
"at:48:1368:0:1","Müselbach Abzweigung","47.45259776","9.87897081","0092","","","Level 0",""
"at:48:1368:0:2","Müselbach Abzweigung","47.45271925","9.87829707","0092","","","Level 0",""
"at:48:137:0:1","Schruns Alpenrose","47.07558374","9.92359013","0050","","","Level 0",""
"at:48:137:0:2","Schruns Alpenrose","47.07569998","9.92362606","0050","","","Level 0",""
"at:48:1375:0:3","Nenzing Aluwerk","47.18963226","9.71523488","0042","","","Level 0",""
"at:48:1375:0:4","Nenzing Aluwerk","47.18965668","9.71504624","0042","","","Level 0",""
"at:48:1376:0:1","Bings Feuerwehrhaus","47.14274565","9.85586614","0040","","","Level 0",""
"at:48:1376:0:2","Bings Feuerwehrhaus","47.14270899","9.85577631","0040","","","Level 0",""
"at:48:1377:0:2","Nenzing Bahnhof","47.19088372","9.70966533","0042","","Pat:48:1377","Level 0","1"
"at:48:1377:1","Bstg 1+2","47.19185433","9.70742852","","","Pat:48:1377","Level 0",""
"at:48:1377:3","P+R","47.19092645","9.70904549","","3","Pat:48:1377","Level 0",""
"at:48:1377:4","B+R","47.19118284","9.70865023","","3","Pat:48:1377","Level 0",""
"at:48:1377:5","Zugang Bahnhofstr","47.19115842","9.70886583","","2","Pat:48:1377","Level 0",""
"at:48:1377:6","Zugang Nagrand","47.19147586","9.70903651","","2","Pat:48:1377","Level 0",""
"at:48:1377:7","Unterführung","47.19132935","9.70895566","","3","Pat:48:1377","Level -1",""
"at:48:1379:0:1","Nenzing Gasthaus Gemsle","47.18212904","9.70900058","0042","","","Level 0",""
"at:48:1379:0:2","Nenzing Gasthaus Gemsle","47.18198861","9.70925210","0042","","","Level 0",""
"at:48:1380:0:1","Nenzing Gemeindeamt","47.18446132","9.70556003","0042","","","Level 0",""
"at:48:1380:0:2","Nenzing Gemeindeamt","47.18441247","9.70551511","0042","","","Level 0",""
"at:48:1380:0:3","Nenzing Gemeindeamt","47.18441247","9.70570376","0042","","","Level 0",""
"at:48:1380:0:4","Nenzing Gemeindeamt","47.18432700","9.70554206","0042","","","Level 0",""
"at:48:1381:0:1","Halden Haldenegg","47.20386045","9.64623529","0038","","","Level 0",""
"at:48:1381:0:2","Halden Haldenegg","47.20390928","9.64632512","0038","","","Level 0",""
"at:48:1382:0:1","Nenzing Mittelschule","47.18610972","9.70340407","0042","","","Level 0",""
"at:48:1382:0:2","Nenzing Mittelschule","47.18589605","9.70358373","0042","","","Level 0",""
"at:48:1383:0:1","Nenzing Heimat Augarten","47.21195252","9.65131077","0042","","","Level 0",""
"at:48:1383:0:2","Nenzing Heimat Augarten","47.21201354","9.65132873","0042","","","Level 0",""
"at:48:1384:0:1","Nenzing Kindergarten/Sen.heim","47.18661034","9.70768903","0042","","","Level 0",""
"at:48:1384:0:2","Nenzing Kindergarten/Sen.heim","47.18646382","9.70761717","0042","","","Level 0",""
"at:48:1385:0:2","Latz","47.19092034","9.66051850","0038","","","Level 0",""
"at:48:1386:0:1","Mariex","47.21259935","9.64008183","0042","","","Level 0",""
"at:48:1386:0:2","Mariex","47.21253222","9.64009979","0042","","","Level 0",""
"at:48:1387:0:1","Nenzing Marmota","47.18936366","9.70221829","0042","","","Level 0",""
"at:48:1387:0:2","Nenzing Marmota","47.18934534","9.70230813","0042","","","Level 0",""
"at:48:1388:0:1","Motten Kapelle","47.20906002","9.64871464","0042","","","Level 0",""
"at:48:1388:0:2","Motten Kapelle","47.20898679","9.64871464","0042","","","Level 0",""
"at:48:1389:0:1","Roßnis Rober","47.21003641","9.63927334","0038","","","Level 0",""
"at:48:1389:0:2","Roßnis Rober","47.21010354","9.63928233","0038","","","Level 0",""
"at:48:139:0:1","Kaltenbrunnen Bahnhof","47.08519397","9.88817854","0051","","","Level 0",""
"at:48:139:0:2","Kaltenbrunnen Bahnhof","47.08513281","9.88825939","0051","","","Level 0",""
"at:48:1390:0:1","Roßnis","47.20889526","9.64187846","0038","","","Level 0",""
"at:48:1390:0:2","Roßnis","47.20885864","9.64206710","0038","","","Level 0",""
"at:48:1391:0:1","Nenzing Schulstraße/L190","47.18808775","9.70614393","0042","","","Level 0",""
"at:48:1391:0:2","Nenzing Schulstraße/L190","47.18811217","9.70629665","0042","","","Level 0",""
"at:48:1392:0:1","Nenzing Spar-Markt","47.18769093","9.70874905","0042","","","Level 0",""
"at:48:1392:0:2","Nenzing Spar-Markt","47.18794734","9.70926109","0042","","","Level 0",""
"at:48:1393:0:1","Nenzing Sportplatz/Bahnunterf.","47.19295313","9.71159671","0042","","","Level 0",""
"at:48:1393:0:2","Nenzing Sportplatz/Bahnunterf.","47.19284935","9.71167755","0042","","","Level 0",""
"at:48:1394:0:1","Nenzing Walgaubad","47.19409462","9.70361068","0042","","","Level 0",""
"at:48:1394:0:2","Nenzing Walgaubad","47.19401527","9.70370950","0042","","","Level 0",""
"at:48:1395:0:1","Nenzing Werdenbergstraße","47.19449750","9.70717700","0042","","","Level 0",""
"at:48:1395:0:2","Nenzing Werdenbergstraße","47.19455244","9.70729378","0042","","","Level 0",""
"at:48:1396:0:1","Nofels Badgasse","47.25545520","9.57082172","0030","","","Level 0",""
"at:48:1396:0:2","Nofels Badgasse","47.25537594","9.57160325","0030","","","Level 0",""
"at:48:1397:0:1","Bings Radin","47.14510410","9.87623993","0040","","","Level 0",""
"at:48:1397:0:2","Bings Radin","47.14493303","9.87409296","0040","","","Level 0",""
"at:48:1398:0:1","Nofels Franz-Heim-Gasse","47.25582103","9.57703806","0030","","","Level 0",""
"at:48:1398:0:2","Nofels Franz-Heim-Gasse","47.25588200","9.57701111","0030","","","Level 0",""
"at:48:1399:0:1","Nofels Freschner-Riegelweg","47.25858294","9.55956583","0030","","","Level 0",""
"at:48:1399:0:2","Nofels Freschner-Riegelweg","47.25849759","9.55957481","0030","","","Level 0",""
"at:48:14:0:1","Hörbranz Oberer Kirchplatz","47.55565219","9.75317074","0015","","","Level 0",""
"at:48:140:0:1","Bludenz Beim Kreuz","47.15020557","9.83066840","0040","","","Level 0",""
"at:48:140:0:2","Bludenz Beim Kreuz","47.15007117","9.83055162","0040","","","Level 0",""
"at:48:1400:0:1","Nofels Kirche","47.25399186","9.57805316","0030","","","Level 0",""
"at:48:1400:0:2","Nofels Kirche","47.25407723","9.57781959","0030","","","Level 0",""
"at:48:1401:0:1","Nofels Kreuzbergstraße","47.25652829","9.56455148","0030","","","Level 0",""
"at:48:1401:0:2","Nofels Kreuzbergstraße","47.25654658","9.56420113","0030","","","Level 0",""
"at:48:1402:0:1","Nofels Kronenweg","47.25615027","9.56779440","0030","","","Level 0",""
"at:48:1402:0:2","Nofels Kronenweg","47.25608930","9.56775846","0030","","","Level 0",""
"at:48:1403:0:1","Nofels Steinbruchgasse","47.25152240","9.58219439","0030","","","Level 0",""
"at:48:1403:0:2","Nofels Steinbruchgasse","47.25149191","9.58212252","0030","","","Level 0",""
"at:48:1405:0:2","Nüziders Bahnhof","47.17210273","9.79289424","0040","","Pat:48:1405","Level 0","1"
"at:48:1405:0:3","Nüziders Bahnhof","47.17218822","9.79285831","0040","","Pat:48:1405","Level 0",""
"at:48:1405:1","Bstg 1","47.17093022","9.79383747","","","Pat:48:1405","Level 0",""
"at:48:1405:3","P+R","47.17122946","9.79356798","","3","Pat:48:1405","Level 0",""
"at:48:1405:4","B+R","47.17128442","9.79341526","","3","Pat:48:1405","Level 0",""
"at:48:1405:5","Zugang Tschippweg","47.17135770","9.79333441","","2","Pat:48:1405","Level 0",""
"at:48:1405:6","Zugang Tänzerweg","47.17077144","9.79333441","","2","Pat:48:1405","Level 0",""
"at:48:1405:7","Bstg 2","47.17121114","9.79347814","","","Pat:48:1405","Level 0",""
"at:48:1406:0:1","Nüziders Bürser Brücke/B12","47.16248375","9.80228163","0040","","","Level 0",""
"at:48:1406:0:2","Nüziders Bürser Brücke/B12","47.16238602","9.80234452","0040","","","Level 0",""
"at:48:1407:0:1","Nüziders Feuerwehrhaus","47.17093633","9.79790684","0040","","","Level 0",""
"at:48:1407:0:2","Nüziders Feuerwehrhaus","47.17088747","9.79775413","0040","","","Level 0",""
"at:48:1408:0:1","Bings Alfenzbrücke/Stallehr","47.14146863","9.85516546","0040","","","Level 0",""
"at:48:1409:0:1","Nüziders Hubertus","47.16492683","9.79591258","0040","","","Level 0",""
"at:48:1409:0:2","Nüziders Hubertus","47.16507952","9.79517596","0040","","","Level 0",""
"at:48:141:0:1","Schruns Landbrücke","47.05952203","9.93551077","0050","","","Level 0",""
"at:48:141:0:2","Schruns Landbrücke","47.05980354","9.93549281","0050","","","Level 0",""
"at:48:1410:0:1","Nüziders Kapelle","47.17024014","9.80467115","0040","","","Level 0",""
"at:48:1410:0:2","Nüziders Kapelle","47.17014853","9.80464420","0040","","","Level 0",""
"at:48:1411:0:1","Nüziders Lindenweg","47.16698504","9.80750983","0040","","","Level 0",""
"at:48:1411:0:2","Nüziders Lindenweg","47.16681403","9.80758169","0040","","","Level 0",""
"at:48:1412:0:1","Nüziders Postamt","47.17402021","9.80052992","0040","","","Level 0",""
"at:48:1412:0:2","Nüziders Postamt","47.17398357","9.80052992","0040","","","Level 0",""
"at:48:1413:0:1","Nüziders Rämpele","47.17584602","9.78428838","0040","","","Level 0",""
"at:48:1413:0:2","Nüziders Rämpele","47.17547964","9.78497110","0040","","","Level 0",""
"at:48:1414:0:2","Oberlech Abzweigung Salome","47.22248379","10.14131481","0076","","","Level 0",""
"at:48:1415:0:1","Oberlech Spitzenegg","47.21795670","10.14480925","0076","","","Level 0",""
"at:48:1415:0:2","Oberlech Spitzenegg","47.21792619","10.14475535","0076","","","Level 0",""
"at:48:1417:0:1","Oberlech Schlössle","47.22259360","10.14024581","0076","","","Level 0",""
"at:48:1417:0:2","Oberlech Schlössle","47.22247769","10.14032666","0076","","","Level 0",""
"at:48:142:0:1","Schruns Montjola","47.08266159","9.91761633","0050","","","Level 0",""
"at:48:142:0:2","Schruns Montjola","47.08270441","9.91754447","0050","","","Level 0",""
"at:48:1422:0:1","Oberstubenbach","47.21684622","10.15237307","0076","","","Level 0",""
"at:48:1424:0:1","Partenen Bergbahnen","46.96997130","10.05837336","0055","","","Level 0",""
"at:48:1424:0:2","Partenen Bergbahnen","46.96985483","10.05861590","0055","","","Level 0",""
"at:48:1425:0:1","Partenen Gasthaus Partenerhof","46.96945638","10.06072694","0055","","","Level 0",""
"at:48:1425:0:2","Partenen Gasthaus Partenerhof","46.96939508","10.06077186","0055","","","Level 0",""
"at:48:1426:0:1","Partenen Hotel Zerres","46.97114210","10.05174379","0055","","","Level 0",""
"at:48:1426:0:2","Partenen Hotel Zerres","46.97104403","10.05180667","0055","","","Level 0",""
"at:48:1427:0:1","Partenen Loch","46.96486482","10.07426455","0055","","","Level 0",""
"at:48:1427:0:2","Partenen Loch","46.96484643","10.07416574","0055","","","Level 0",""
"at:48:1427:0:3","Partenen Loch","46.96491999","10.07438133","0055","","","Level 0",""
"at:48:1428:0:1","Partenen Zentrum","46.96887403","10.06275713","0055","","","Level 0",""
"at:48:1428:0:2","Partenen Zentrum","46.96875143","10.06282002","0055","","","Level 0",""
"at:48:1429:0:1","Raggal Abzweigung","47.21187930","9.83668711","0045","","","Level 0",""
"at:48:1429:0:2","Raggal Abzweigung","47.21181827","9.83639067","0045","","","Level 0",""
"at:48:143:0:1","Schruns Zamang Bahn","47.06896996","9.93040834","0050","","","Level 0",""
"at:48:143:0:2","Schruns Zamang Bahn","47.06913516","9.93041733","0050","","","Level 0",""
"at:48:1430:0:1","Bizau Kirchplatz","47.36915435","9.92836917","0091","","","Level 0",""
"at:48:1431:0:1","Raggal Walserhalle","47.21206236","9.83895086","0045","","","Level 0",""
"at:48:1431:0:2","Raggal Walserhalle","47.21211728","9.83898680","0045","","","Level 0",""
"at:48:1432:0:1","Raggal Sandbühel","47.21074428","9.84366702","0045","","","Level 0",""
"at:48:1432:0:2","Raggal Sandbühel","47.21071987","9.84358617","0045","","","Level 0",""
"at:48:1433:0:1","Raggal Winkel","47.21117144","9.83091993","0045","","","Level 0",""
"at:48:1433:0:2","Raggal Winkel","47.21111042","9.83087501","0045","","","Level 0",""
"at:48:1434:0:1","Rankweil Alemannenstraße","47.27489542","9.65140958","0032","","","Level 0",""
"at:48:1434:0:2","Rankweil Alemannenstraße","47.27476742","9.65063703","0032","","","Level 0",""
"at:48:1434:0:4","Rankweil Alemannenstraße","47.27482837","9.65150840","0032","","","Level 0",""
"at:48:1435:0:1","Rankweil Appenzellerstraße","47.27791231","9.63214072","0032","","","Level 0",""
"at:48:1435:0:2","Rankweil Appenzellerstraße","47.27799763","9.63214072","0032","","","Level 0",""
"at:48:1436:0:1","Rankweil Bahnhof","47.27151264","9.63794384","0032","","","Level 0","A"
"at:48:1436:0:10","Rankweil Bahnhof","47.27153092","9.63786299","0032","","","Level 0","B"
"at:48:1437:0:1","Rankweil Bifang","47.28022210","9.64548968","0032","","","Level 0",""
"at:48:1437:0:2","Rankweil Bifang","47.28017334","9.64554358","0032","","","Level 0",""
"at:48:1438:0:1","Rankweil Churer Straße","47.26452697","9.62787372","0032","","","Level 0",""
"at:48:1438:0:2","Rankweil Churer Straße","47.26457574","9.62823305","0032","","","Level 0",""
"at:48:1439:0:1","Rankweil Frutzolen","47.27927747","9.64971177","0032","","","Level 0",""
"at:48:1439:0:2","Rankweil Frutzolen","47.27973455","9.65005313","0032","","","Level 0",""
"at:48:1440:0:1","Rankweil Gewerbepark","47.27636427","9.65687134","0032","","","Level 0",""
"at:48:1440:0:3","Rankweil Gewerbepark","47.27612657","9.65749118","0032","","","Level 0",""
"at:48:1440:0:4","Rankweil Gewerbepark","47.27636427","9.65673659","0032","","","Level 0",""
"at:48:1441:0:1","Bizau Oberdorf","47.36823565","9.93568145","0091","","","Level 0",""
"at:48:1441:0:2","Bizau Oberdorf","47.36830257","9.93558264","0091","","","Level 0",""
"at:48:1442:0:1","Rankweil Habsburgerstraße","47.27555366","9.64487883","0032","","","Level 0",""
"at:48:1442:0:2","Rankweil Habsburgerstraße","47.27616924","9.64498663","0032","","","Level 0",""
"at:48:1443:0:1","Rankweil Mittelschule","47.27301206","9.64236355","0032","","","Level 0",""
"at:48:1443:0:2","Rankweil Mittelschule","47.27301815","9.64221982","0032","","","Level 0",""
"at:48:1444:0:1","Rankweil Holzplatz","47.27804639","9.65393385","0032","","","Level 0",""
"at:48:1444:0:2","Rankweil Holzplatz","47.27793059","9.65403266","0032","","","Level 0",""
"at:48:1445:0:1","Rankweil Kaiserplatz","47.26759931","9.63543754","0032","","","Level 0",""
"at:48:1445:0:2","Rankweil Kaiserplatz","47.26758103","9.63560822","0032","","","Level 0",""
"at:48:1446:0:1","Rankweil Konkordiaplatz","47.27190883","9.64609156","0032","","","Level 0",""
"at:48:1446:0:2","Rankweil Konkordiaplatz","47.27179302","9.64659461","0032","","","Level 0",""
"at:48:1447:0:1","Rankweil Landrichterstraße","47.27628504","9.64817565","0032","","","Level 0",""
"at:48:1447:0:2","Rankweil Landrichterstraße","47.27633989","9.64825650","0032","","","Level 0",""
"at:48:1448:0:1","Rankweil Langgasse","47.27136025","9.62717304","0032","","","Level 0",""
"at:48:1448:0:2","Rankweil Langgasse","47.27198197","9.62605014","0032","","","Level 0",""
"at:48:1449:0:1","Rankweil Letze","47.26798334","9.64365712","0032","","","Level 0",""
"at:48:1449:0:2","Rankweil Letze","47.26806259","9.64354034","0032","","","Level 0",""
"at:48:145:0:1","Schwarzach Dorfplatz","47.44858243","9.76264796","0011","","","Level 0",""
"at:48:145:0:2","Schwarzach Dorfplatz","47.44907449","9.76236949","0011","","","Level 0",""
"at:48:1450:0:1","Rankweil Lindenweg","47.26977545","9.63001171","0032","","","Level 0",""
"at:48:1450:0:2","Rankweil Lindenweg","47.26964744","9.63065850","0032","","","Level 0",""
"at:48:1451:0:1","Rankweil Marktplatz","47.27078120","9.64188744","0032","","","Level 0","A"
"at:48:1451:0:2","Rankweil Marktplatz","47.27073243","9.64187846","0032","","","Level 0","B"
"at:48:1451:0:3","Rankweil Marktplatz","47.27131149","9.64082743","0032","","","Level 0","Ersatz Ri Kaiserplatz"
"at:48:1452:0:1","Bizau Unterdorf","47.37107078","9.92158689","0091","","","Level 0",""
"at:48:1452:0:2","Bizau Unterdorf","47.37110729","9.92175757","0091","","","Level 0",""
"at:48:1453:0:1","Rankweil Montfortstraße","47.27254883","9.64530104","0032","","","Level 0",""
"at:48:1453:0:2","Rankweil Montfortstraße","47.27274387","9.64536392","0032","","","Level 0",""
"at:48:1454:0:1","Röthis Bild","47.29728336","9.66928606","0032","","","Level 0",""
"at:48:1454:0:2","Röthis Bild","47.29731991","9.66921419","0032","","","Level 0",""
"at:48:1455:0:1","Innerlaterns Gerstenböden","47.25720505","9.76646580","0035","","","Level 0",""
"at:48:1455:0:2","Innerlaterns Gerstenböden","47.25715627","9.76667242","0035","","","Level 0",""
"at:48:1458:0:1","Meiningen Bim Krüz","47.29644261","9.57900537","0031","","","Level 0",""
"at:48:1458:0:2","Meiningen Bim Krüz","47.29675332","9.57910419","0031","","","Level 0",""
"at:48:1459:0:1","Meiningen Pfarrhof","47.29972632","9.57827774","0031","","","Level 0",""
"at:48:1459:0:2","Meiningen Pfarrhof","47.29978724","9.57834960","0031","","","Level 0",""
"at:48:146:0:1","Schwarzach Bahnhof","47.44609775","9.75488652","0011","","Pat:48:146","Level 0",""
"at:48:146:0:2","Schwarzach Bahnhof","47.44645010","9.75487754","0011","","Pat:48:146","Level 0",""
"at:48:146:0:4","Schwarzach Bahnhof","47.44691789","9.75460804","0011","","Pat:48:146","Level 0",""
"at:48:146:1","Bstg 1","47.44690573","9.75413194","","","Pat:48:146","Level 0",""
"at:48:146:3","P+R","47.44679638","9.75441041","","3","Pat:48:146","Level 0",""
"at:48:146:4","B+R","47.44658983","9.75455414","","3","Pat:48:146","Level 0",""
"at:48:146:5","Zugang Dorf","47.44606737","9.75465296","","2","Pat:48:146","Level 0",""
"at:48:146:6","Zugang","47.44604914","9.75431160","","2","Pat:48:146","Level 0",""
"at:48:146:7","Bstg 2","47.44696041","9.75412295","","","Pat:48:146","Level 0",""
"at:48:146:8","Unterführung","47.44585474","9.75448228","","3","Pat:48:146","Level -1",""
"at:48:146:9","Zugang Bahng.","47.44658983","9.75405109","","2","Pat:48:146","Level -1",""
"at:48:1460:0:1","Hittisau Dornbündt","47.45525829","9.99751250","0093","","","Level 0",""
"at:48:1460:0:2","Hittisau Dornbündt","47.45526436","9.99770114","0093","","","Level 0",""
"at:48:1461:0:1","Krumbach Wolfbühl","47.48012584","9.91431952","0094","","","Level 0",""
"at:48:1461:0:2","Krumbach Wolfbühl","47.48022905","9.91482257","0094","","","Level 0",""
"at:48:1462:0:1","Dornbirn Unterries","47.41560377","9.76718446","0020","","","Level 0",""
"at:48:1462:0:2","Dornbirn Unterries","47.41568887","9.76704073","0020","","","Level 0",""
"at:48:1463:0:1","Schwarzenberg Beien","47.41715989","9.84132242","0090","","","Level 0",""
"at:48:1463:0:2","Schwarzenberg Beien","47.41729361","9.84125953","0090","","","Level 0",""
"at:48:1464:0:1","Röthis Kirche","47.29236662","9.65823678","0032","","","Level 0",""
"at:48:1464:0:2","Röthis Kirche","47.29276266","9.65823678","0032","","","Level 0",""
"at:48:1465:0:1","Dafins Wanne","47.29061184","9.66727383","0032","","","Level 0",""
"at:48:1465:0:2","Dafins Wanne","47.29070933","9.66725586","0032","","","Level 0",""
"at:48:1466:0:1","Innerlaterns Rain","47.25844881","9.74635252","0035","","","Level 0",""
"at:48:1466:0:2","Innerlaterns Rain","47.25853417","9.74623574","0035","","","Level 0",""
"at:48:1468:0:1","Bings Volksschule","47.14469474","9.85964805","0040","","","Level 0",""
"at:48:1468:0:2","Bings Volksschule","47.14475584","9.85975585","0040","","","Level 0",""
"at:48:1469:0:1","Wald Sonnenkopfbahn","47.12868444","10.05299245","0071","","","Level 0",""
"at:48:147:0:1","Schwarzach Bahnhofstraße","47.44437237","9.76211796","0011","","","Level 0",""
"at:48:147:0:2","Schwarzach Bahnhofstraße","47.44442097","9.76210897","0011","","","Level 0",""
"at:48:1470:0:1","Bings Siedlung","47.14221407","9.85215610","0040","","","Level 0",""
"at:48:1471:0:1","Vandans Brunella","47.09280875","9.86770594","0051","","","Level 0",""
"at:48:1472:0:1","Bartholomäberg Daneu","47.08656410","9.91732887","0052","","","Level 0",""
"at:48:1472:0:2","Bartholomäberg Daneu","47.08652740","9.91742769","0052","","","Level 0",""
"at:48:1473:0:1","Dornbirn Schlossgasse","47.41075884","9.75088902","0020","","","Level 0",""
"at:48:1473:0:2","Dornbirn Schlossgasse","47.41082571","9.75089800","0020","","","Level 0",""
"at:48:1474:0:1","Schwarzenberg Dorn","47.42000455","9.86157943","0090","","","Level 0",""
"at:48:1474:0:2","Schwarzenberg Dorn","47.41988298","9.86154349","0090","","","Level 0",""
"at:48:1475:0:1","Andelsbuch Kalchern","47.41804126","9.89845527","0090","","","Level 0",""
"at:48:1475:0:2","Andelsbuch Kalchern","47.41821753","9.89879663","0090","","","Level 0",""
"at:48:1476:0:1","Riefensberg Felder","47.50644409","9.94718887","0094","","","Level 0",""
"at:48:1476:0:2","Riefensberg Felder","47.50644409","9.94702718","0094","","","Level 0",""
"at:48:1477:0:1","Andelsbuch Feld","47.40900191","9.88988534","0090","","","Level 0",""
"at:48:1477:0:2","Andelsbuch Feld","47.40895327","9.88998416","0090","","","Level 0",""
"at:48:1478:0:1","Bolgenach Huber","47.47551758","9.94418850","0093","","","Level 0",""
"at:48:1478:0:2","Bolgenach Huber","47.47546293","9.94409867","0093","","","Level 0",""
"at:48:1479:0:1","Bolgenach Küng","47.47990728","9.94612886","0093","","","Level 0",""
"at:48:1479:0:2","Bolgenach Küng","47.47971300","9.94594021","0093","","","Level 0",""
"at:48:148:0:1","Schwarzach Firma Hefel","47.44395317","9.76745395","0011","","","Level 0",""
"at:48:148:0:2","Schwarzach Firma Hefel","47.44397140","9.76694191","0011","","","Level 0",""
"at:48:1480:0:1","Riefensberg Eggling","47.48512223","9.94788058","0094","","","Level 0",""
"at:48:1480:0:2","Riefensberg Eggling","47.48529220","9.94799736","0094","","","Level 0",""
"at:48:1481:0:1","Riefensberg Welzenbühl","47.49060981","9.95318962","0094","","","Level 0",""
"at:48:1481:0:2","Riefensberg Welzenbühl","47.49065230","9.95310877","0094","","","Level 0",""
"at:48:1482:0:1","Riefensberg Fischer","47.49805112","9.95549829","0094","","","Level 0",""
"at:48:1482:0:2","Riefensberg Fischer","47.49806933","9.95537253","0094","","","Level 0",""
"at:48:1483:0:1","Partenen Hubertusklause","46.97049234","10.05577722","0055","","","Level 0",""
"at:48:1483:0:2","Partenen Hubertusklause","46.97041265","10.05583112","0055","","","Level 0",""
"at:48:1484:0:1","Partenen Tirolerhof","46.96808325","10.06530835","0055","","","Level 0",""
"at:48:1484:0:2","Partenen Tirolerhof","46.96799742","10.06543411","0055","","","Level 0",""
"at:48:1485:0:1","Bludenz Hl. Kreuzkirche","47.15384656","9.82186491","0040","","","Level 0",""
"at:48:1485:0:2","Bludenz Hl. Kreuzkirche","47.15376104","9.82184694","0040","","","Level 0",""
"at:48:1487:0:1","Bludenz Schmittenstraße","47.15313182","9.82852142","0040","","","Level 0",""
"at:48:1487:0:2","Bludenz Schmittenstraße","47.15308295","9.82859329","0040","","","Level 0",""
"at:48:1488:0:1","Oberlech Abzw. Burgplateau","47.21962847","10.14522248","0076","","","Level 0",""
"at:48:1488:0:2","Oberlech Abzw. Burgplateau","47.21966508","10.14515061","0076","","","Level 0",""
"at:48:149:0:1","Schwarzach Im Schlatt","47.45132212","9.76064472","0011","","","Level 0",""
"at:48:149:0:2","Schwarzach Im Schlatt","47.45158940","9.75980929","0011","","","Level 0",""
"at:48:1492:0:1","Bregenz Josef-Huter-Straße","47.49668554","9.73425222","0010","","","Level 0",""
"at:48:1492:0:2","Bregenz Josef-Huter-Straße","47.49696473","9.73426120","0010","","","Level 0",""
"at:48:1493:0:1","Dornbirn Pfarrheim Wallenmahd","47.39306528","9.72881741","0020","","","Level 0",""
"at:48:1493:0:2","Dornbirn Pfarrheim Wallenmahd","47.39304096","9.72891623","0020","","","Level 0",""
"at:48:1494:0:1","Hohenems Furchgasse","47.38031129","9.70489527","0021","","","Level 0",""
"at:48:1494:0:2","Hohenems Furchgasse","47.38035996","9.70513782","0021","","","Level 0",""
"at:48:1495:0:1","Hohenems Oberklien","47.37731849","9.70061929","0021","","","Level 0",""
"at:48:1495:0:2","Hohenems Oberklien","47.37669193","9.69949640","0021","","","Level 0",""
"at:48:1498:0:1","Hohenems August-Reis-Straße","47.35873136","9.68486284","0021","","","Level 0",""
"at:48:1498:0:2","Hohenems August-Reis-Straße","47.35876178","9.68479098","0021","","","Level 0",""
"at:48:1499:0:1","Hohenems Spielerstraße","47.35473929","9.68078449","0021","","","Level 0",""
"at:48:1499:0:2","Hohenems Spielerstraße","47.35442892","9.68056890","0021","","","Level 0",""
"at:48:15:0:1","Hohenems Im Tiergarten","47.36817481","9.69186072","0021","","","Level 0",""
"at:48:15:0:2","Hohenems Im Tiergarten","47.36804704","9.69158224","0021","","","Level 0",""
"at:48:150:0:1","Schwarzach Kirche","47.44483410","9.76309712","0011","","","Level 0",""
"at:48:150:0:2","Schwarzach Kirche","47.44470652","9.76295339","0011","","","Level 0",""
"at:48:1500:0:1","Hohenems Im Brühl","47.35103905","9.67676004","0021","","","Level 0",""
"at:48:1500:0:2","Hohenems Im Brühl","47.35137987","9.67722716","0021","","","Level 0",""
"at:48:1501:0:1","Hohenems Schwefelbadstraße","47.34844021","9.67228643","0021","","","Level 0",""
"at:48:1501:0:2","Hohenems Schwefelbadstraße","47.34844630","9.67207083","0021","","","Level 0",""
"at:48:1502:0:1","Dornbirn Höchsterstraße","47.40670383","9.73644411","0020","","","Level 0",""
"at:48:1502:0:2","Dornbirn Höchsterstraße","47.40633904","9.73754005","0020","","","Level 0",""
"at:48:1503:0:1","Dornbirn Bäumlegasse","47.40805959","9.73003014","0020","","","Level 0",""
"at:48:1503:0:2","Dornbirn Bäumlegasse","47.40779208","9.73080269","0020","","","Level 0",""
"at:48:1504:0:1","Dornbirn Messekreuzung","47.41302634","9.71094094","0020","","","Level 0",""
"at:48:1504:0:2","Dornbirn Messekreuzung","47.41277711","9.71285435","0020","","","Level 0",""
"at:48:1505:0:1","Lustenau Holzstraße","47.41889831","9.66240496","0023","","","Level 0",""
"at:48:1505:0:2","Lustenau Holzstraße","47.41896517","9.66242293","0023","","","Level 0",""
"at:48:1506:0:1","Lustenau Volksschule Kirchdorf","47.42458729","9.65896441","0023","","","Level 0",""
"at:48:1506:0:2","Lustenau Volksschule Kirchdorf","47.42436849","9.65915306","0023","","","Level 0",""
"at:48:1507:0:1","Lustenau Körnerstraße","47.42986242","9.66004239","0023","","","Level 0",""
"at:48:1507:0:2","Lustenau Körnerstraße","47.42995965","9.66015019","0023","","","Level 0",""
"at:48:1508:0:1","Hohenems Jakob-Hannibal-Straße","47.36384880","9.68612048","0021","","","Level 0",""
"at:48:1508:0:2","Hohenems Jakob-Hannibal-Straße","47.36376970","9.68614743","0021","","","Level 0",""
"at:48:1509:0:1","Lauterach Inselstraße","47.48447873","9.71506420","0011","","","Level 0",""
"at:48:1509:0:2","Lauterach Inselstraße","47.48447266","9.71483064","0011","","","Level 0",""
"at:48:151:0:1","Bludenz Berufsschule","47.15361443","9.83101874","0040","","","Level 0",""
"at:48:151:0:2","Bludenz Berufsschule","47.15356556","9.83118044","0040","","","Level 0",""
"at:48:1512:0:1","Hohenems Kirchholz","47.36344112","9.66857639","0021","","","Level 0",""
"at:48:1512:0:2","Hohenems Kirchholz","47.36339245","9.66861232","0021","","","Level 0",""
"at:48:1513:0:1","Altach Brolsstraße","47.35381425","9.64795107","0022","","","Level 0",""
"at:48:1513:0:2","Altach Brolsstraße","47.35391163","9.64775344","0022","","","Level 0",""
"at:48:1514:0:1","Mäder Schule","47.34981572","9.62133399","0022","","","Level 0",""
"at:48:1514:0:2","Mäder Schule","47.34991919","9.62204366","0022","","","Level 0",""
"at:48:1519:0:1","Lustenau Hasenfeldstraße","47.41169503","9.65541607","0023","","","Level 0",""
"at:48:152:0:2","Schwarzach Pfeller","47.44081817","9.76181253","0011","","","Level 0",""
"at:48:152:0:3","Schwarzach Pfeller","47.44030172","9.76135439","0011","","","Level 0",""
"at:48:1520:0:1","Lustenau Philipp-Krapf-Straße","47.40883168","9.65622455","0023","","","Level 0",""
"at:48:1520:0:2","Lustenau Philipp-Krapf-Straße","47.40887424","9.65614370","0023","","","Level 0",""
"at:48:1520:0:3","Lustenau Philipp-Krapf-Straße","47.40912350","9.65591913","0023","","","Level 0",""
"at:48:1521:0:1","Lustenau Montfortstraße","47.43458406","9.65408656","0023","","","Level 0",""
"at:48:1521:0:2","Lustenau Montfortstraße","47.43452937","9.65404165","0023","","","Level 0",""
"at:48:1523:0:1","Lustenau Volksschule Rotkreuz","47.43997363","9.66262954","0023","","","Level 0",""
"at:48:1523:0:2","Lustenau Volksschule Rotkreuz","47.43948148","9.66271039","0023","","","Level 0",""
"at:48:1524:0:1","Lustenau Bettleweg","47.43991287","9.66654619","0023","","","Level 0",""
"at:48:1524:0:2","Lustenau Bettleweg","47.43997363","9.66651026","0023","","","Level 0",""
"at:48:1525:0:1","Lustenau Carini Saal","47.43833312","9.67296915","0023","","","Level 0",""
"at:48:1525:0:2","Lustenau Carini Saal","47.43863085","9.67298712","0023","","","Level 0",""
"at:48:1526:0:1","Lustenau Scheibenbrücke","47.44085462","9.67264576","0023","","","Level 0",""
"at:48:1526:0:2","Lustenau Scheibenbrücke","47.44083639","9.67274457","0023","","","Level 0",""
"at:48:153:0:1","Schwarzach Rieger","47.43787134","9.75931521","0011","","","Level 0",""
"at:48:153:0:2","Schwarzach Rieger","47.43787741","9.75918945","0011","","","Level 0",""
"at:48:1530:0:1","Hohenems Cineplexx","47.37351034","9.67684089","0021","","","Level 0",""
"at:48:1530:0:2","Hohenems Cineplexx","47.37318791","9.67668817","0021","","","Level 0",""
"at:48:1531:0:1","Lustenau Staldenstraße","47.43215341","9.66544127","0023","","","Level 0",""
"at:48:1531:0:2","Lustenau Staldenstraße","47.43164296","9.66492024","0023","","","Level 0","2"
"at:48:1531:0:3","Lustenau Staldenstraße","47.43163688","9.66503703","0023","","","Level 0",""
"at:48:1531:0:4","Lustenau Staldenstraße","47.43239040","9.66478550","0023","","","Level 0",""
"at:48:1532:0:1","Lustenau Holzmühlestraße","47.43155181","9.66827994","0023","","","Level 0",""
"at:48:1532:0:2","Lustenau Holzmühlestraße","47.43161257","9.66828893","0023","","","Level 0",""
"at:48:1533:0:1","Lustenau Sportpark","47.43028173","9.67124438","0023","","","Level 0",""
"at:48:1533:0:2","Lustenau Sportpark","47.43033642","9.67134320","0023","","","Level 0",""
"at:48:1534:0:1","Lustenau Rheinhalle","47.42848291","9.67464900","0023","","","Level 0",""
"at:48:1534:0:2","Lustenau Rheinhalle","47.42883539","9.67481070","0023","","","Level 0",""
"at:48:1536:0:1","Lustenau Pestalozziweg","47.41559161","9.66030290","0023","","","Level 0",""
"at:48:1536:0:2","Lustenau Pestalozziweg","47.41558553","9.66037477","0023","","","Level 0",""
"at:48:1537:0:2","Lustenau Wiesenrain","47.41070412","9.66065325","0023","","","Level 0",""
"at:48:1537:0:3","Lustenau Wiesenrain","47.41057646","9.66058138","0023","","","Level 0",""
"at:48:1538:0:1","Lauterach Alter Markt","47.47143113","9.72888928","0011","","","Level 0",""
"at:48:1538:0:2","Lauterach Alter Markt","47.47155864","9.72881741","0011","","","Level 0",""
"at:48:1539:0:1","Wolfurt Fatt","47.47279736","9.74410674","0011","","","Level 0",""
"at:48:1539:0:2","Wolfurt Fatt","47.47274271","9.74363961","0011","","","Level 0",""
"at:48:154:0:1","Schwarzach Tobel","47.44294464","9.79226542","0011","","","Level 0",""
"at:48:154:0:2","Schwarzach Tobel","47.44296287","9.79215762","0011","","","Level 0",""
"at:48:1544:0:1","Lauterach Schule Unterfeld","47.48326457","9.71847780","0011","","","Level 0",""
"at:48:1544:0:2","Lauterach Schule Unterfeld","47.48319779","9.71838797","0011","","","Level 0",""
"at:48:1545:0:1","Lauterach Kaltenbrunnen","47.47964014","9.71817237","0011","","","Level 0",""
"at:48:1545:0:2","Lauterach Kaltenbrunnen","47.47962193","9.71806458","0011","","","Level 0",""
"at:48:1548:0:1","Lauterach Langegasse","47.47164365","9.73199745","0011","","","Level 0",""
"at:48:1548:0:2","Lauterach Langegasse","47.47169223","9.73158422","0011","","","Level 0",""
"at:48:1549:0:1","Lauterach Morgenstraße","47.47094535","9.73561766","0011","","","Level 0",""
"at:48:1549:0:2","Lauterach Morgenstraße","47.47090891","9.73551884","0011","","","Level 0",""
"at:48:155:0:1","Schwarzenberg Dorfplatz","47.41381053","9.85227288","0090","","","Level 0",""
"at:48:155:0:2","Schwarzenberg Dorfplatz","47.41374974","9.85226390","0090","","","Level 0",""
"at:48:155:0:3","Schwarzenberg Dorfplatz","47.41378621","9.85203932","0090","","","Level 0",""
"at:48:1554:0:1","Hard Salbachstraße","47.48311280","9.70925210","0013","","","Level 0",""
"at:48:1554:0:2","Hard Salbachstraße","47.48308245","9.70955753","0013","","","Level 0",""
"at:48:1556:0:1","Lauterach Hasenfeldgasse","47.46770872","9.72841317","0011","","","Level 0",""
"at:48:1556:0:2","Lauterach Hasenfeldgasse","47.46758726","9.72827842","0011","","","Level 0",""
"at:48:1557:0:1","Wolfurt Zollamt","47.45738418","9.73001217","0011","","","Level 0",""
"at:48:1557:0:2","Wolfurt Zollamt","47.45720196","9.73024573","0011","","","Level 0",""
"at:48:156:0:1","Schwarzenberg Heuberg","47.41390171","9.83647151","0090","","","Level 0",""
"at:48:156:0:2","Schwarzenberg Heuberg","47.41391387","9.83668711","0090","","","Level 0",""
"at:48:1560:0:1","Götzis Unteres Tobel","47.34341867","9.65007109","0022","","","Level 0",""
"at:48:1560:0:2","Götzis Unteres Tobel","47.34344302","9.65016991","0022","","","Level 0",""
"at:48:1560:0:3","Götzis Unteres Tobel","47.34324214","9.64950515","0022","","","Level 0",""
"at:48:1560:0:4","Götzis Unteres Tobel","47.34323606","9.64982855","0022","","","Level 0",""
"at:48:1561:0:1","Götzis Möslestraße","47.34763071","9.64562443","0022","","","Level 0",""
"at:48:1561:0:2","Götzis Möslestraße","47.34770375","9.64557952","0022","","","Level 0",""
"at:48:1562:0:1","Altach Im Widenfeld","47.34849499","9.64045014","0022","","","Level 0",""
"at:48:1562:0:2","Altach Im Widenfeld","47.34854368","9.64063878","0022","","","Level 0",""
